{"Tokyo":[{"city":"Tokyo","latitude":35.685,"longitude":139.7514,"country":"Japan"}],"New York":[{"city":"New York","latitude":40.6943,"longitude":-73.9249,"country":"United States"}],"Mexico City":[{"city":"Mexico City","latitude":19.4424,"longitude":-99.131,"country":"Mexico"}],"Mumbai":[{"city":"Mumbai","latitude":19.017,"longitude":72.857,"country":"India"}],"São Paulo":[{"city":"São Paulo","latitude":-23.5587,"longitude":-46.625,"country":"Brazil"}],"Delhi":[{"city":"Delhi","latitude":28.67,"longitude":77.23,"country":"India"},{"city":"Delhi","latitude":37.4306,"longitude":-120.7759,"country":"United States"}],"Shanghai":[{"city":"Shanghai","latitude":31.2165,"longitude":121.4365,"country":"China"}],"Kolkata":[{"city":"Kolkata","latitude":22.495,"longitude":88.3247,"country":"India"}],"Los Angeles":[{"city":"Los Angeles","latitude":34.1139,"longitude":-118.4068,"country":"United States"}],"Dhaka":[{"city":"Dhaka","latitude":23.7231,"longitude":90.4086,"country":"Bangladesh"}],"Buenos Aires":[{"city":"Buenos Aires","latitude":-34.6025,"longitude":-58.3975,"country":"Argentina"}],"Karachi":[{"city":"Karachi","latitude":24.87,"longitude":66.99,"country":"Pakistan"}],"Cairo":[{"city":"Cairo","latitude":30.05,"longitude":31.25,"country":"Egypt"},{"city":"Cairo","latitude":30.879,"longitude":-84.205,"country":"United States"},{"city":"Cairo","latitude":42.2965,"longitude":-74.0205,"country":"United States"}],"Rio de Janeiro":[{"city":"Rio de Janeiro","latitude":-22.925,"longitude":-43.225,"country":"Brazil"}],"Ōsaka":[{"city":"Ōsaka","latitude":34.75,"longitude":135.4601,"country":"Japan"}],"Beijing":[{"city":"Beijing","latitude":39.9289,"longitude":116.3883,"country":"China"}],"Manila":[{"city":"Manila","latitude":14.6042,"longitude":120.9822,"country":"Philippines"}],"Moscow":[{"city":"Moscow","latitude":55.7522,"longitude":37.6155,"country":"Russia"},{"city":"Moscow","latitude":46.7307,"longitude":-116.9986,"country":"United States"}],"Istanbul":[{"city":"Istanbul","latitude":41.105,"longitude":29.01,"country":"Turkey"}],"Paris":[{"city":"Paris","latitude":48.8667,"longitude":2.3333,"country":"France"},{"city":"Paris","latitude":33.6689,"longitude":-95.5462,"country":"United States"},{"city":"Paris","latitude":38.2016,"longitude":-84.2719,"country":"United States"},{"city":"Paris","latitude":36.2933,"longitude":-88.3065,"country":"United States"},{"city":"Paris","latitude":39.6148,"longitude":-87.6905,"country":"United States"},{"city":"Paris","latitude":44.2445,"longitude":-70.4883,"country":"United States"}],"Seoul":[{"city":"Seoul","latitude":37.5663,"longitude":126.9997,"country":"Korea, South"}],"Lagos":[{"city":"Lagos","latitude":6.4433,"longitude":3.3915,"country":"Nigeria"}],"Jakarta":[{"city":"Jakarta","latitude":-6.1744,"longitude":106.8294,"country":"Indonesia"}],"Guangzhou":[{"city":"Guangzhou","latitude":23.145,"longitude":113.325,"country":"China"}],"Chicago":[{"city":"Chicago","latitude":41.8373,"longitude":-87.6862,"country":"United States"}],"London":[{"city":"London","latitude":51.5,"longitude":-0.1167,"country":"United Kingdom"},{"city":"London","latitude":42.97,"longitude":-81.25,"country":"Canada"},{"city":"London","latitude":37.1209,"longitude":-84.0804,"country":"United States"},{"city":"London","latitude":39.8936,"longitude":-83.4375,"country":"United States"}],"Lima":[{"city":"Lima","latitude":-12.048,"longitude":-77.0501,"country":"Peru"},{"city":"Lima","latitude":40.741,"longitude":-84.1121,"country":"United States"}],"Tehran":[{"city":"Tehran","latitude":35.6719,"longitude":51.4243,"country":"Iran"}],"Kinshasa":[{"city":"Kinshasa","latitude":-4.3297,"longitude":15.315,"country":"Congo (Kinshasa)"}],"Bogotá":[{"city":"Bogotá","latitude":4.5964,"longitude":-74.0833,"country":"Colombia"}],"Shenzhen":[{"city":"Shenzhen","latitude":22.5524,"longitude":114.1221,"country":"China"}],"Wuhan":[{"city":"Wuhan","latitude":30.58,"longitude":114.27,"country":"China"}],"Hong Kong":[{"city":"Hong Kong","latitude":22.305,"longitude":114.185,"country":"Hong Kong"}],"Tianjin":[{"city":"Tianjin","latitude":39.13,"longitude":117.2,"country":"China"}],"Chennai":[{"city":"Chennai","latitude":13.09,"longitude":80.28,"country":"India"}],"Taipei":[{"city":"Taipei","latitude":25.0358,"longitude":121.5683,"country":"Taiwan"}],"Bengalūru":[{"city":"Bengalūru","latitude":12.97,"longitude":77.56,"country":"India"}],"Bangkok":[{"city":"Bangkok","latitude":13.75,"longitude":100.5166,"country":"Thailand"}],"Lahore":[{"city":"Lahore","latitude":31.56,"longitude":74.35,"country":"Pakistan"}],"Chongqing":[{"city":"Chongqing","latitude":29.565,"longitude":106.595,"country":"China"}],"Miami":[{"city":"Miami","latitude":25.7839,"longitude":-80.2102,"country":"United States"},{"city":"Miami","latitude":36.8877,"longitude":-94.8718,"country":"United States"}],"Hyderabad":[{"city":"Hyderabad","latitude":17.4,"longitude":78.48,"country":"India"}],"Dallas":[{"city":"Dallas","latitude":32.7936,"longitude":-96.7662,"country":"United States"},{"city":"Dallas","latitude":44.9222,"longitude":-123.3131,"country":"United States"},{"city":"Dallas","latitude":33.9153,"longitude":-84.8416,"country":"United States"}],"Santiago":[{"city":"Santiago","latitude":-33.45,"longitude":-70.667,"country":"Chile"},{"city":"Santiago","latitude":19.5,"longitude":-70.67,"country":"Dominican Republic"},{"city":"Santiago","latitude":8.1004,"longitude":-80.9833,"country":"Panama"},{"city":"Santiago","latitude":16.6881,"longitude":121.5472,"country":"Philippines"},{"city":"Santiago","latitude":-14.1896,"longitude":-75.74,"country":"Peru"}],"Philadelphia":[{"city":"Philadelphia","latitude":40.0077,"longitude":-75.1339,"country":"United States"},{"city":"Philadelphia","latitude":32.7761,"longitude":-89.1221,"country":"United States"}],"Belo Horizonte":[{"city":"Belo Horizonte","latitude":-19.915,"longitude":-43.915,"country":"Brazil"}],"Madrid":[{"city":"Madrid","latitude":40.4,"longitude":-3.6834,"country":"Spain"}],"Houston":[{"city":"Houston","latitude":29.7869,"longitude":-95.3905,"country":"United States"}],"Ahmadābād":[{"city":"Ahmadābād","latitude":23.0301,"longitude":72.58,"country":"India"}],"Ho Chi Minh City":[{"city":"Ho Chi Minh City","latitude":10.78,"longitude":106.695,"country":"Vietnam"}],"Washington":[{"city":"Washington","latitude":38.9047,"longitude":-77.0163,"country":"United States"},{"city":"Washington","latitude":37.1325,"longitude":-113.4893,"country":"United States"},{"city":"Washington","latitude":40.7048,"longitude":-89.4345,"country":"United States"},{"city":"Washington","latitude":35.5587,"longitude":-77.0546,"country":"United States"},{"city":"Washington","latitude":40.7587,"longitude":-74.9825,"country":"United States"},{"city":"Washington","latitude":38.5514,"longitude":-91.0151,"country":"United States"},{"city":"Washington","latitude":40.1739,"longitude":-80.2465,"country":"United States"},{"city":"Washington","latitude":38.6592,"longitude":-87.1721,"country":"United States"},{"city":"Washington","latitude":41.2982,"longitude":-91.6928,"country":"United States"}],"Atlanta":[{"city":"Atlanta","latitude":33.7627,"longitude":-84.4225,"country":"United States"},{"city":"Atlanta","latitude":33.1136,"longitude":-94.1672,"country":"United States"}],"Toronto":[{"city":"Toronto","latitude":43.7,"longitude":-79.42,"country":"Canada"}],"Singapore":[{"city":"Singapore","latitude":1.293,"longitude":103.8558,"country":"Singapore"}],"Luanda":[{"city":"Luanda","latitude":-8.8383,"longitude":13.2344,"country":"Angola"}],"Baghdad":[{"city":"Baghdad","latitude":33.3386,"longitude":44.3939,"country":"Iraq"}],"Barcelona":[{"city":"Barcelona","latitude":41.3833,"longitude":2.1834,"country":"Spain"},{"city":"Barcelona","latitude":10.1304,"longitude":-64.72,"country":"Venezuela"}],"Hāora":[{"city":"Hāora","latitude":22.5804,"longitude":88.3299,"country":"India"}],"Shenyang":[{"city":"Shenyang","latitude":41.805,"longitude":123.45,"country":"China"}],"Khartoum":[{"city":"Khartoum","latitude":15.5881,"longitude":32.5342,"country":"Sudan"}],"Pune":[{"city":"Pune","latitude":18.53,"longitude":73.85,"country":"India"}],"Boston":[{"city":"Boston","latitude":42.3188,"longitude":-71.0846,"country":"United States"},{"city":"Boston","latitude":42.6528,"longitude":-78.7555,"country":"United States"}],"Sydney":[{"city":"Sydney","latitude":-33.92,"longitude":151.1852,"country":"Australia"},{"city":"Sydney","latitude":46.0661,"longitude":-60.18,"country":"Canada"}],"Saint Petersburg":[{"city":"Saint Petersburg","latitude":59.939,"longitude":30.316,"country":"Russia"}],"Chittagong":[{"city":"Chittagong","latitude":22.33,"longitude":91.8,"country":"Bangladesh"}],"Dongguan":[{"city":"Dongguan","latitude":23.0489,"longitude":113.7447,"country":"China"}],"Riyadh":[{"city":"Riyadh","latitude":24.6408,"longitude":46.7727,"country":"Saudi Arabia"}],"Hanoi":[{"city":"Hanoi","latitude":21.0333,"longitude":105.85,"country":"Vietnam"}],"Guadalajara":[{"city":"Guadalajara","latitude":20.67,"longitude":-103.33,"country":"Mexico"},{"city":"Guadalajara","latitude":40.6337,"longitude":-3.1666,"country":"Spain"}],"Melbourne":[{"city":"Melbourne","latitude":-37.82,"longitude":144.975,"country":"Australia"},{"city":"Melbourne","latitude":28.1085,"longitude":-80.6627,"country":"United States"}],"Alexandria":[{"city":"Alexandria","latitude":31.2,"longitude":29.95,"country":"Egypt"},{"city":"Alexandria","latitude":38.8185,"longitude":-77.0861,"country":"United States"},{"city":"Alexandria","latitude":43.9016,"longitude":25.2867,"country":"Romania"},{"city":"Alexandria","latitude":31.2923,"longitude":-92.4702,"country":"United States"},{"city":"Alexandria","latitude":45.8777,"longitude":-95.3766,"country":"United States"},{"city":"Alexandria","latitude":38.9622,"longitude":-84.386,"country":"United States"},{"city":"Alexandria","latitude":40.2583,"longitude":-85.676,"country":"United States"}],"Chengdu":[{"city":"Chengdu","latitude":30.67,"longitude":104.07,"country":"China"}],"Rangoon":[{"city":"Rangoon","latitude":16.7834,"longitude":96.1667,"country":"Burma"}],"Phoenix":[{"city":"Phoenix","latitude":33.5722,"longitude":-112.0891,"country":"United States"}],"Xi’an":[{"city":"Xi’an","latitude":34.275,"longitude":108.895,"country":"China"}],"Porto Alegre":[{"city":"Porto Alegre","latitude":-30.05,"longitude":-51.2,"country":"Brazil"}],"Sūrat":[{"city":"Sūrat","latitude":21.2,"longitude":72.84,"country":"India"}],"Hechi":[{"city":"Hechi","latitude":23.0965,"longitude":109.6091,"country":"China"}],"Abidjan":[{"city":"Abidjan","latitude":5.32,"longitude":-4.04,"country":"Côte D’Ivoire"}],"Brasília":[{"city":"Brasília","latitude":-15.7833,"longitude":-47.9161,"country":"Brazil"}],"Ankara":[{"city":"Ankara","latitude":39.9272,"longitude":32.8644,"country":"Turkey"}],"Monterrey":[{"city":"Monterrey","latitude":25.67,"longitude":-100.33,"country":"Mexico"}],"Yokohama":[{"city":"Yokohama","latitude":35.32,"longitude":139.58,"country":"Japan"}],"Nanjing":[{"city":"Nanjing","latitude":32.05,"longitude":118.78,"country":"China"}],"Montréal":[{"city":"Montréal","latitude":45.5,"longitude":-73.5833,"country":"Canada"}],"Guiyang":[{"city":"Guiyang","latitude":26.58,"longitude":106.72,"country":"China"}],"Recife":[{"city":"Recife","latitude":-8.0756,"longitude":-34.9156,"country":"Brazil"}],"Seattle":[{"city":"Seattle","latitude":47.6211,"longitude":-122.3244,"country":"United States"}],"Harbin":[{"city":"Harbin","latitude":45.75,"longitude":126.65,"country":"China"}],"San Francisco":[{"city":"San Francisco","latitude":37.7562,"longitude":-122.443,"country":"United States"},{"city":"San Francisco","latitude":13.7,"longitude":-88.1,"country":"El Salvador"},{"city":"San Francisco","latitude":-31.43,"longitude":-62.09,"country":"Argentina"}],"Fortaleza":[{"city":"Fortaleza","latitude":-3.75,"longitude":-38.58,"country":"Brazil"}],"Zhangzhou":[{"city":"Zhangzhou","latitude":24.5204,"longitude":117.67,"country":"China"}],"Detroit":[{"city":"Detroit","latitude":42.3834,"longitude":-83.1024,"country":"United States"}],"Salvador":[{"city":"Salvador","latitude":-12.97,"longitude":-38.48,"country":"Brazil"}],"Busan":[{"city":"Busan","latitude":35.0951,"longitude":129.01,"country":"Korea, South"}],"Johannesburg":[{"city":"Johannesburg","latitude":-26.17,"longitude":28.03,"country":"South Africa"}],"Berlin":[{"city":"Berlin","latitude":52.5218,"longitude":13.4015,"country":"Germany"},{"city":"Berlin","latitude":41.6114,"longitude":-72.7758,"country":"United States"},{"city":"Berlin","latitude":44.4869,"longitude":-71.2599,"country":"United States"},{"city":"Berlin","latitude":39.7915,"longitude":-74.9375,"country":"United States"}],"Algiers":[{"city":"Algiers","latitude":36.7631,"longitude":3.0506,"country":"Algeria"}],"Rome":[{"city":"Rome","latitude":41.896,"longitude":12.4833,"country":"Italy"},{"city":"Rome","latitude":34.2662,"longitude":-85.1862,"country":"United States"},{"city":"Rome","latitude":43.226,"longitude":-75.491,"country":"United States"}],"Pyongyang":[{"city":"Pyongyang","latitude":39.0194,"longitude":125.7547,"country":"Korea, North"}],"Medellín":[{"city":"Medellín","latitude":6.275,"longitude":-75.575,"country":"Colombia"}],"Kabul":[{"city":"Kabul","latitude":34.5167,"longitude":69.1833,"country":"Afghanistan"}],"Athens":[{"city":"Athens","latitude":37.9833,"longitude":23.7333,"country":"Greece"},{"city":"Athens","latitude":33.9508,"longitude":-83.3689,"country":"United States"},{"city":"Athens","latitude":39.3269,"longitude":-82.0987,"country":"United States"},{"city":"Athens","latitude":34.7847,"longitude":-86.951,"country":"United States"},{"city":"Athens","latitude":35.4573,"longitude":-84.6045,"country":"United States"},{"city":"Athens","latitude":32.2041,"longitude":-95.8321,"country":"United States"}],"Nagoya":[{"city":"Nagoya","latitude":35.155,"longitude":136.915,"country":"Japan"}],"Cape Town":[{"city":"Cape Town","latitude":-33.92,"longitude":18.435,"country":"South Africa"}],"San Diego":[{"city":"San Diego","latitude":32.8312,"longitude":-117.1225,"country":"United States"}],"Changchun":[{"city":"Changchun","latitude":43.865,"longitude":125.34,"country":"China"}],"Casablanca":[{"city":"Casablanca","latitude":33.6,"longitude":-7.6164,"country":"Morocco"}],"Dalian":[{"city":"Dalian","latitude":38.9228,"longitude":121.6298,"country":"China"}],"Cawnpore":[{"city":"Cawnpore","latitude":26.46,"longitude":80.32,"country":"India"}],"Kano":[{"city":"Kano","latitude":12,"longitude":8.52,"country":"Nigeria"}],"Tel Aviv-Yafo":[{"city":"Tel Aviv-Yafo","latitude":32.08,"longitude":34.77,"country":"Israel"}],"Addis Ababa":[{"city":"Addis Ababa","latitude":9.0333,"longitude":38.7,"country":"Ethiopia"}],"Curitiba":[{"city":"Curitiba","latitude":-25.42,"longitude":-49.32,"country":"Brazil"}],"Zibo":[{"city":"Zibo","latitude":36.8,"longitude":118.05,"country":"China"}],"Jeddah":[{"city":"Jeddah","latitude":21.5169,"longitude":39.2192,"country":"Saudi Arabia"}],"Nairobi":[{"city":"Nairobi","latitude":-1.2833,"longitude":36.8167,"country":"Kenya"}],"Hangzhou":[{"city":"Hangzhou","latitude":30.25,"longitude":120.17,"country":"China"}],"Benoni":[{"city":"Benoni","latitude":-26.1496,"longitude":28.3299,"country":"South Africa"}],"Caracas":[{"city":"Caracas","latitude":10.501,"longitude":-66.917,"country":"Venezuela"}],"Milan":[{"city":"Milan","latitude":45.47,"longitude":9.205,"country":"Italy"},{"city":"Milan","latitude":42.0815,"longitude":-83.6854,"country":"United States"},{"city":"Milan","latitude":35.9126,"longitude":-88.7554,"country":"United States"},{"city":"Milan","latitude":41.4416,"longitude":-90.5595,"country":"United States"}],"Stuttgart":[{"city":"Stuttgart","latitude":48.78,"longitude":9.2,"country":"Germany"},{"city":"Stuttgart","latitude":34.4963,"longitude":-91.5486,"country":"United States"}],"Kunming":[{"city":"Kunming","latitude":25.07,"longitude":102.68,"country":"China"}],"Dar es Salaam":[{"city":"Dar es Salaam","latitude":-6.8,"longitude":39.2683,"country":"Tanzania"}],"Minneapolis":[{"city":"Minneapolis","latitude":44.9635,"longitude":-93.2678,"country":"United States"}],"Jaipur":[{"city":"Jaipur","latitude":26.9211,"longitude":75.81,"country":"India"}],"Taiyuan":[{"city":"Taiyuan","latitude":37.875,"longitude":112.5451,"country":"China"}],"Frankfurt":[{"city":"Frankfurt","latitude":50.1,"longitude":8.675,"country":"Germany"}],"Qingdao":[{"city":"Qingdao","latitude":36.09,"longitude":120.33,"country":"China"}],"Surabaya":[{"city":"Surabaya","latitude":-7.2492,"longitude":112.7508,"country":"Indonesia"}],"Lisbon":[{"city":"Lisbon","latitude":38.7227,"longitude":-9.1449,"country":"Portugal"},{"city":"Lisbon","latitude":40.7752,"longitude":-80.7628,"country":"United States"},{"city":"Lisbon","latitude":44.0265,"longitude":-70.09,"country":"United States"}],"Tampa":[{"city":"Tampa","latitude":27.9942,"longitude":-82.4451,"country":"United States"}],"Jinan":[{"city":"Jinan","latitude":36.675,"longitude":116.995,"country":"China"}],"Fukuoka":[{"city":"Fukuoka","latitude":33.595,"longitude":130.41,"country":"Japan"}],"Campinas":[{"city":"Campinas","latitude":-22.9,"longitude":-47.1,"country":"Brazil"}],"Denver":[{"city":"Denver","latitude":39.7621,"longitude":-104.8759,"country":"United States"}],"Kaohsiung":[{"city":"Kaohsiung","latitude":22.6333,"longitude":120.2666,"country":"Taiwan"}],"Quezon City":[{"city":"Quezon City","latitude":14.6504,"longitude":121.03,"country":"Philippines"}],"Katowice":[{"city":"Katowice","latitude":50.2604,"longitude":19.02,"country":"Poland"}],"Aleppo":[{"city":"Aleppo","latitude":36.23,"longitude":37.17,"country":"Syria"}],"Durban":[{"city":"Durban","latitude":-29.865,"longitude":30.98,"country":"South Africa"}],"Kyiv":[{"city":"Kyiv","latitude":50.4334,"longitude":30.5166,"country":"Ukraine"}],"Lucknow":[{"city":"Lucknow","latitude":26.855,"longitude":80.915,"country":"India"}],"Giza":[{"city":"Giza","latitude":30.01,"longitude":31.19,"country":"Egypt"}],"Zhengzhou":[{"city":"Zhengzhou","latitude":34.755,"longitude":113.6651,"country":"China"}],"Taichung":[{"city":"Taichung","latitude":24.1521,"longitude":120.6817,"country":"Taiwan"}],"Brooklyn":[{"city":"Brooklyn","latitude":40.6501,"longitude":-73.9496,"country":"United States"},{"city":"Brooklyn","latitude":41.4349,"longitude":-81.7498,"country":"United States"},{"city":"Brooklyn","latitude":41.787,"longitude":-71.9543,"country":"United States"}],"Ibadan":[{"city":"Ibadan","latitude":7.38,"longitude":3.93,"country":"Nigeria"}],"Faisalabad":[{"city":"Faisalabad","latitude":31.41,"longitude":73.11,"country":"Pakistan"}],"Fuzhou":[{"city":"Fuzhou","latitude":26.08,"longitude":119.3,"country":"China"},{"city":"Fuzhou","latitude":27.9703,"longitude":116.36,"country":"China"}],"Changsha":[{"city":"Changsha","latitude":28.2,"longitude":112.97,"country":"China"}],"Dakar":[{"city":"Dakar","latitude":14.7158,"longitude":-17.4731,"country":"Senegal"}],"İzmir":[{"city":"İzmir","latitude":38.4361,"longitude":27.1518,"country":"Turkey"}],"Xiangtan":[{"city":"Xiangtan","latitude":27.8504,"longitude":112.9,"country":"China"}],"Lanzhou":[{"city":"Lanzhou","latitude":36.056,"longitude":103.792,"country":"China"}],"Incheon":[{"city":"Incheon","latitude":37.4761,"longitude":126.6422,"country":"Korea, South"}],"Sapporo":[{"city":"Sapporo","latitude":43.075,"longitude":141.34,"country":"Japan"}],"Xiamen":[{"city":"Xiamen","latitude":24.45,"longitude":118.08,"country":"China"}],"Guayaquil":[{"city":"Guayaquil","latitude":-2.22,"longitude":-79.92,"country":"Ecuador"}],"George Town":[{"city":"George Town","latitude":5.4136,"longitude":100.3294,"country":"Malaysia"},{"city":"George Town","latitude":19.2804,"longitude":-81.33,"country":"Cayman Islands"}],"Mashhad":[{"city":"Mashhad","latitude":36.27,"longitude":59.57,"country":"Iran"}],"Damascus":[{"city":"Damascus","latitude":33.5,"longitude":36.3,"country":"Syria"},{"city":"Damascus","latitude":39.2737,"longitude":-77.2006,"country":"United States"},{"city":"Damascus","latitude":45.4239,"longitude":-122.447,"country":"United States"}],"Daegu":[{"city":"Daegu","latitude":35.8668,"longitude":128.607,"country":"Korea, South"}],"Nāgpur":[{"city":"Nāgpur","latitude":21.17,"longitude":79.09,"country":"India"}],"Lianshan":[{"city":"Lianshan","latitude":40.7503,"longitude":120.83,"country":"China"}],"Shijiazhuang":[{"city":"Shijiazhuang","latitude":38.05,"longitude":114.48,"country":"China"}],"Tunis":[{"city":"Tunis","latitude":36.8028,"longitude":10.1797,"country":"Tunisia"}],"Vienna":[{"city":"Vienna","latitude":48.2,"longitude":16.3666,"country":"Austria"},{"city":"Vienna","latitude":38.8996,"longitude":-77.2597,"country":"United States"},{"city":"Vienna","latitude":39.3238,"longitude":-81.5383,"country":"United States"},{"city":"Vienna","latitude":43.2344,"longitude":-75.7777,"country":"United States"}],"Jilin":[{"city":"Jilin","latitude":43.85,"longitude":126.55,"country":"China"}],"Omdurman":[{"city":"Omdurman","latitude":15.6167,"longitude":32.48,"country":"Sudan"}],"Bandung":[{"city":"Bandung","latitude":-6.95,"longitude":107.57,"country":"Indonesia"}],"Bekasi":[{"city":"Bekasi","latitude":-6.2173,"longitude":106.9723,"country":"Indonesia"}],"Mannheim":[{"city":"Mannheim","latitude":49.5004,"longitude":8.47,"country":"Germany"}],"Nanchang":[{"city":"Nanchang","latitude":28.68,"longitude":115.88,"country":"China"}],"Wenzhou":[{"city":"Wenzhou","latitude":28.02,"longitude":120.6501,"country":"China"}],"Queens":[{"city":"Queens","latitude":40.7498,"longitude":-73.7976,"country":"United States"}],"Vancouver":[{"city":"Vancouver","latitude":49.2734,"longitude":-123.1216,"country":"Canada"},{"city":"Vancouver","latitude":45.6367,"longitude":-122.597,"country":"United States"}],"Birmingham":[{"city":"Birmingham","latitude":52.475,"longitude":-1.92,"country":"United Kingdom"},{"city":"Birmingham","latitude":33.5277,"longitude":-86.7987,"country":"United States"},{"city":"Birmingham","latitude":42.5447,"longitude":-83.2166,"country":"United States"}],"Cali":[{"city":"Cali","latitude":3.4,"longitude":-76.5,"country":"Colombia"}],"Naples":[{"city":"Naples","latitude":40.84,"longitude":14.245,"country":"Italy"},{"city":"Naples","latitude":26.1505,"longitude":-81.7936,"country":"United States"}],"Sendai":[{"city":"Sendai","latitude":38.2871,"longitude":141.0217,"country":"Japan"}],"Manchester":[{"city":"Manchester","latitude":53.5004,"longitude":-2.248,"country":"United Kingdom"},{"city":"Manchester","latitude":42.9848,"longitude":-71.4447,"country":"United States"},{"city":"Manchester","latitude":41.7753,"longitude":-72.5242,"country":"United States"},{"city":"Manchester","latitude":39.9651,"longitude":-74.3738,"country":"United States"},{"city":"Manchester","latitude":38.583,"longitude":-90.5065,"country":"United States"},{"city":"Manchester","latitude":35.463,"longitude":-86.0774,"country":"United States"},{"city":"Manchester","latitude":37.4902,"longitude":-77.5396,"country":"United States"},{"city":"Manchester","latitude":47.5519,"longitude":-122.5517,"country":"United States"},{"city":"Manchester","latitude":39.6584,"longitude":-76.8881,"country":"United States"},{"city":"Manchester","latitude":37.1464,"longitude":-83.7635,"country":"United States"}],"Puebla":[{"city":"Puebla","latitude":19.05,"longitude":-98.2,"country":"Mexico"}],"Tripoli":[{"city":"Tripoli","latitude":32.8925,"longitude":13.18,"country":"Libya"},{"city":"Tripoli","latitude":34.42,"longitude":35.87,"country":"Lebanon"}],"Tashkent":[{"city":"Tashkent","latitude":41.3117,"longitude":69.2949,"country":"Uzbekistan"}],"Havana":[{"city":"Havana","latitude":23.132,"longitude":-82.3642,"country":"Cuba"}],"Gaoping":[{"city":"Gaoping","latitude":30.7804,"longitude":106.13,"country":"China"}],"Baltimore":[{"city":"Baltimore","latitude":39.3051,"longitude":-76.6144,"country":"United States"}],"Nanning":[{"city":"Nanning","latitude":22.82,"longitude":108.32,"country":"China"}],"Belém":[{"city":"Belém","latitude":-1.45,"longitude":-48.48,"country":"Brazil"}],"Patna":[{"city":"Patna","latitude":25.625,"longitude":85.13,"country":"India"}],"Santo Domingo":[{"city":"Santo Domingo","latitude":18.4701,"longitude":-69.9001,"country":"Dominican Republic"}],"Ürümqi":[{"city":"Ürümqi","latitude":43.805,"longitude":87.575,"country":"China"}],"Zaozhuang":[{"city":"Zaozhuang","latitude":34.88,"longitude":117.57,"country":"China"}],"Baku":[{"city":"Baku","latitude":40.3953,"longitude":49.8622,"country":"Azerbaijan"}],"Accra":[{"city":"Accra","latitude":5.55,"longitude":-0.2167,"country":"Ghana"}],"Yantai":[{"city":"Yantai","latitude":37.5304,"longitude":121.4,"country":"China"}],"Medan":[{"city":"Medan","latitude":3.58,"longitude":98.65,"country":"Indonesia"}],"Santa Cruz":[{"city":"Santa Cruz","latitude":-17.7539,"longitude":-63.226,"country":"Bolivia"},{"city":"Santa Cruz","latitude":36.9789,"longitude":-122.0346,"country":"United States"},{"city":"Santa Cruz","latitude":-6.22,"longitude":-36.03,"country":"Brazil"},{"city":"Santa Cruz","latitude":14.1167,"longitude":121.2833,"country":"Philippines"},{"city":"Santa Cruz","latitude":-0.5333,"longitude":-90.35,"country":"Ecuador"}],"Tongshan":[{"city":"Tongshan","latitude":34.28,"longitude":117.18,"country":"China"}],"Riverside":[{"city":"Riverside","latitude":33.9381,"longitude":-117.3948,"country":"United States"},{"city":"Riverside","latitude":40.0358,"longitude":-74.9564,"country":"United States"},{"city":"Riverside","latitude":39.7836,"longitude":-84.1219,"country":"United States"},{"city":"Riverside","latitude":41.831,"longitude":-87.8169,"country":"United States"},{"city":"Riverside","latitude":41.0319,"longitude":-73.5827,"country":"United States"},{"city":"Riverside","latitude":39.4777,"longitude":-76.2385,"country":"United States"}],"Linyi":[{"city":"Linyi","latitude":35.08,"longitude":118.33,"country":"China"}],"St. Louis":[{"city":"St. Louis","latitude":38.6358,"longitude":-90.2451,"country":"United States"},{"city":"St. Louis","latitude":43.4082,"longitude":-84.6118,"country":"United States"}],"Las Vegas":[{"city":"Las Vegas","latitude":36.2333,"longitude":-115.2654,"country":"United States"},{"city":"Las Vegas","latitude":35.6011,"longitude":-105.2206,"country":"United States"}],"Maracaibo":[{"city":"Maracaibo","latitude":10.73,"longitude":-71.66,"country":"Venezuela"}],"Kuwait City":[{"city":"Kuwait City","latitude":29.3697,"longitude":47.9783,"country":"Kuwait"}],"Ad Dammām":[{"city":"Ad Dammām","latitude":26.4282,"longitude":50.0997,"country":"Saudi Arabia"}],"Portland":[{"city":"Portland","latitude":45.5371,"longitude":-122.65,"country":"United States"},{"city":"Portland","latitude":43.6773,"longitude":-70.2715,"country":"United States"},{"city":"Portland","latitude":27.8913,"longitude":-97.328,"country":"United States"},{"city":"Portland","latitude":36.5883,"longitude":-86.5194,"country":"United States"},{"city":"Portland","latitude":-38.34,"longitude":141.59,"country":"Australia"},{"city":"Portland","latitude":40.4377,"longitude":-84.9835,"country":"United States"},{"city":"Portland","latitude":42.8696,"longitude":-84.899,"country":"United States"},{"city":"Portland","latitude":41.5988,"longitude":-72.589,"country":"United States"}],"Haikou":[{"city":"Haikou","latitude":20.05,"longitude":110.32,"country":"China"}],"Hiroshima":[{"city":"Hiroshima","latitude":34.3878,"longitude":132.4429,"country":"Japan"}],"Baotou":[{"city":"Baotou","latitude":40.6522,"longitude":109.822,"country":"China"}],"Hefei":[{"city":"Hefei","latitude":31.85,"longitude":117.28,"country":"China"}],"Indore":[{"city":"Indore","latitude":22.7151,"longitude":75.865,"country":"India"}],"Goiânia":[{"city":"Goiânia","latitude":-16.72,"longitude":-49.3,"country":"Brazil"}],"Sanaa":[{"city":"Sanaa","latitude":15.3547,"longitude":44.2066,"country":"Yemen"}],"San Antonio":[{"city":"San Antonio","latitude":29.4658,"longitude":-98.5254,"country":"United States"},{"city":"San Antonio","latitude":-33.5995,"longitude":-71.61,"country":"Chile"},{"city":"San Antonio","latitude":18.4468,"longitude":-66.3002,"country":"Puerto Rico"}],"Port-au-Prince":[{"city":"Port-au-Prince","latitude":18.541,"longitude":-72.336,"country":"Haiti"}],"Haiphong":[{"city":"Haiphong","latitude":20.83,"longitude":106.6801,"country":"Vietnam"}],"Suzhou":[{"city":"Suzhou","latitude":33.6361,"longitude":116.9789,"country":"China"},{"city":"Suzhou","latitude":31.3005,"longitude":120.62,"country":"China"}],"Nanyang":[{"city":"Nanyang","latitude":33.0004,"longitude":112.53,"country":"China"}],"Bucharest":[{"city":"Bucharest","latitude":44.4334,"longitude":26.0999,"country":"Romania"}],"Ningbo":[{"city":"Ningbo","latitude":29.88,"longitude":121.55,"country":"China"}],"Douala":[{"city":"Douala","latitude":4.0604,"longitude":9.71,"country":"Cameroon"}],"Tangshan":[{"city":"Tangshan","latitude":39.6243,"longitude":118.1944,"country":"China"}],"Tainan":[{"city":"Tainan","latitude":23,"longitude":120.2,"country":"Taiwan"}],"Xiping":[{"city":"Xiping","latitude":40.08,"longitude":113.3,"country":"China"},{"city":"Xiping","latitude":25.6005,"longitude":103.8166,"country":"China"}],"Asunción":[{"city":"Asunción","latitude":-25.2964,"longitude":-57.6415,"country":"Paraguay"}],"Saidu Sharif":[{"city":"Saidu Sharif","latitude":34.75,"longitude":72.35,"country":"Pakistan"}],"Brisbane":[{"city":"Brisbane","latitude":-27.455,"longitude":153.0351,"country":"Australia"}],"Rawalpindi":[{"city":"Rawalpindi","latitude":33.6,"longitude":73.04,"country":"Pakistan"}],"Sacramento":[{"city":"Sacramento","latitude":38.5667,"longitude":-121.4683,"country":"United States"}],"Beirut":[{"city":"Beirut","latitude":33.872,"longitude":35.5097,"country":"Lebanon"}],"San Jose":[{"city":"San Jose","latitude":37.3021,"longitude":-121.8489,"country":"United States"},{"city":"San Jose","latitude":10.745,"longitude":121.9415,"country":"Philippines"},{"city":"San Jose","latitude":10.18,"longitude":125.5683,"country":"Philippines"}],"Minsk":[{"city":"Minsk","latitude":53.9,"longitude":27.5666,"country":"Belarus"}],"Kyōto":[{"city":"Kyōto","latitude":35.03,"longitude":135.75,"country":"Japan"}],"Barranquilla":[{"city":"Barranquilla","latitude":10.96,"longitude":-74.8,"country":"Colombia"}],"Orlando":[{"city":"Orlando","latitude":28.4772,"longitude":-81.3369,"country":"United States"}],"Shuyangzha":[{"city":"Shuyangzha","latitude":34.1299,"longitude":118.7734,"country":"China"}],"Valencia":[{"city":"Valencia","latitude":10.23,"longitude":-67.98,"country":"Venezuela"},{"city":"Valencia","latitude":39.485,"longitude":-0.4,"country":"Spain"}],"Hamburg":[{"city":"Hamburg","latitude":53.55,"longitude":10,"country":"Germany"},{"city":"Hamburg","latitude":42.7233,"longitude":-78.8348,"country":"United States"}],"Vadodara":[{"city":"Vadodara","latitude":22.31,"longitude":73.18,"country":"India"}],"Manaus":[{"city":"Manaus","latitude":-3.1,"longitude":-60,"country":"Brazil"}],"Shangqiu":[{"city":"Shangqiu","latitude":34.4504,"longitude":115.65,"country":"China"}],"Wuxi":[{"city":"Wuxi","latitude":31.58,"longitude":120.3,"country":"China"}],"Palembang":[{"city":"Palembang","latitude":-2.98,"longitude":104.75,"country":"Indonesia"}],"Brussels":[{"city":"Brussels","latitude":50.8333,"longitude":4.3333,"country":"Belgium"}],"Essen":[{"city":"Essen","latitude":51.45,"longitude":7.0166,"country":"Germany"}],"Cleveland":[{"city":"Cleveland","latitude":41.4767,"longitude":-81.6805,"country":"United States"},{"city":"Cleveland","latitude":35.1818,"longitude":-84.8707,"country":"United States"},{"city":"Cleveland","latitude":33.744,"longitude":-90.7285,"country":"United States"},{"city":"Cleveland","latitude":30.3369,"longitude":-95.0924,"country":"United States"},{"city":"Cleveland","latitude":34.5971,"longitude":-83.7622,"country":"United States"}],"Bhopal":[{"city":"Bhopal","latitude":23.25,"longitude":77.41,"country":"India"}],"Hohhot":[{"city":"Hohhot","latitude":40.82,"longitude":111.66,"country":"China"}],"Pittsburgh":[{"city":"Pittsburgh","latitude":40.4396,"longitude":-79.9763,"country":"United States"}],"Luoyang":[{"city":"Luoyang","latitude":34.68,"longitude":112.4701,"country":"China"}],"Santos":[{"city":"Santos","latitude":-23.9537,"longitude":-46.3329,"country":"Brazil"}],"Jingling":[{"city":"Jingling","latitude":30.6501,"longitude":113.16,"country":"China"}],"Warsaw":[{"city":"Warsaw","latitude":52.25,"longitude":21,"country":"Poland"},{"city":"Warsaw","latitude":41.2443,"longitude":-85.8478,"country":"United States"}],"Rabat":[{"city":"Rabat","latitude":34.0253,"longitude":-6.8361,"country":"Morocco"},{"city":"Rabat","latitude":35.8822,"longitude":14.3981,"country":"Malta"}],"Vitória":[{"city":"Vitória","latitude":-20.324,"longitude":-40.366,"country":"Brazil"}],"Quito":[{"city":"Quito","latitude":-0.215,"longitude":-78.5001,"country":"Ecuador"}],"Antananarivo":[{"city":"Antananarivo","latitude":-18.9166,"longitude":47.5166,"country":"Madagascar"}],"Coimbatore":[{"city":"Coimbatore","latitude":11,"longitude":76.95,"country":"India"}],"Daqing":[{"city":"Daqing","latitude":46.58,"longitude":125,"country":"China"}],"Lu’an":[{"city":"Lu’an","latitude":31.7503,"longitude":116.48,"country":"China"}],"Sanzhou":[{"city":"Sanzhou","latitude":30.82,"longitude":108.4,"country":"China"}],"Budapest":[{"city":"Budapest","latitude":47.5,"longitude":19.0833,"country":"Hungary"}],"Turin":[{"city":"Turin","latitude":45.0704,"longitude":7.67,"country":"Italy"}],"Ludhiāna":[{"city":"Ludhiāna","latitude":30.9278,"longitude":75.8723,"country":"India"}],"Cincinnati":[{"city":"Cincinnati","latitude":39.1412,"longitude":-84.506,"country":"United States"}],"Kumasi":[{"city":"Kumasi","latitude":6.69,"longitude":-1.63,"country":"Ghana"}],"Manhattan":[{"city":"Manhattan","latitude":40.7834,"longitude":-73.9662,"country":"United States"},{"city":"Manhattan","latitude":39.1885,"longitude":-96.6047,"country":"United States"},{"city":"Manhattan","latitude":41.4274,"longitude":-87.9802,"country":"United States"}],"Qiqihar":[{"city":"Qiqihar","latitude":47.345,"longitude":123.99,"country":"China"}],"Anshan":[{"city":"Anshan","latitude":41.115,"longitude":122.94,"country":"China"}],"Austin":[{"city":"Austin","latitude":30.3006,"longitude":-97.7517,"country":"United States"},{"city":"Austin","latitude":43.6722,"longitude":-92.9761,"country":"United States"}],"Zhongli":[{"city":"Zhongli","latitude":24.965,"longitude":121.2168,"country":"Taiwan"}],"Handan":[{"city":"Handan","latitude":36.58,"longitude":114.48,"country":"China"}],"Tai’an":[{"city":"Tai’an","latitude":36.2,"longitude":117.1201,"country":"China"}],"Eşfahān":[{"city":"Eşfahān","latitude":32.7,"longitude":51.7,"country":"Iran"}],"Kansas City":[{"city":"Kansas City","latitude":39.1239,"longitude":-94.5541,"country":"United States"},{"city":"Kansas City","latitude":39.1234,"longitude":-94.7443,"country":"United States"}],"Yaoundé":[{"city":"Yaoundé","latitude":3.8667,"longitude":11.5167,"country":"Cameroon"}],"Shantou":[{"city":"Shantou","latitude":23.37,"longitude":116.67,"country":"China"}],"Āgra":[{"city":"Āgra","latitude":27.1704,"longitude":78.015,"country":"India"}],"Zhanjiang":[{"city":"Zhanjiang","latitude":21.2,"longitude":110.38,"country":"China"}],"La Paz":[{"city":"La Paz","latitude":-16.498,"longitude":-68.15,"country":"Bolivia"},{"city":"La Paz","latitude":24.14,"longitude":-110.32,"country":"Mexico"},{"city":"La Paz","latitude":14.32,"longitude":-87.684,"country":"Honduras"},{"city":"La Paz","latitude":-33.4661,"longitude":-67.55,"country":"Argentina"}],"Kalyān":[{"city":"Kalyān","latitude":19.2502,"longitude":73.1602,"country":"India"}],"Abuja":[{"city":"Abuja","latitude":9.0833,"longitude":7.5333,"country":"Nigeria"}],"Harare":[{"city":"Harare","latitude":-17.8178,"longitude":31.0447,"country":"Zimbabwe"}],"Indianapolis":[{"city":"Indianapolis","latitude":39.7771,"longitude":-86.1458,"country":"United States"}],"Xiantao":[{"city":"Xiantao","latitude":30.3704,"longitude":113.44,"country":"China"}],"Khulna":[{"city":"Khulna","latitude":22.84,"longitude":89.56,"country":"Bangladesh"}],"Weifang":[{"city":"Weifang","latitude":36.7204,"longitude":119.1001,"country":"China"}],"Tijuana":[{"city":"Tijuana","latitude":32.5,"longitude":-117.08,"country":"Mexico"}],"Xinyang":[{"city":"Xinyang","latitude":32.1304,"longitude":114.07,"country":"China"}],"Luzhou":[{"city":"Luzhou","latitude":28.88,"longitude":105.38,"country":"China"}],"Perth":[{"city":"Perth","latitude":-31.955,"longitude":115.84,"country":"Australia"},{"city":"Perth","latitude":56.4003,"longitude":-3.47,"country":"United Kingdom"}],"Toluca":[{"city":"Toluca","latitude":19.3304,"longitude":-99.67,"country":"Mexico"}],"Vishākhapatnam":[{"city":"Vishākhapatnam","latitude":17.73,"longitude":83.305,"country":"India"}],"Leeds":[{"city":"Leeds","latitude":53.83,"longitude":-1.58,"country":"United Kingdom"},{"city":"Leeds","latitude":33.5429,"longitude":-86.5636,"country":"United States"}],"Kōbe":[{"city":"Kōbe","latitude":34.68,"longitude":135.17,"country":"Japan"}],"Columbus":[{"city":"Columbus","latitude":39.986,"longitude":-82.9851,"country":"United States"},{"city":"Columbus","latitude":32.51,"longitude":-84.8771,"country":"United States"},{"city":"Columbus","latitude":39.2094,"longitude":-85.9183,"country":"United States"},{"city":"Columbus","latitude":33.5088,"longitude":-88.4097,"country":"United States"},{"city":"Columbus","latitude":41.4361,"longitude":-97.3561,"country":"United States"},{"city":"Columbus","latitude":43.3354,"longitude":-89.03,"country":"United States"}],"Multan":[{"city":"Multan","latitude":30.2,"longitude":71.455,"country":"Pakistan"}],"Kochi":[{"city":"Kochi","latitude":10.015,"longitude":76.2239,"country":"India"}],"Montevideo":[{"city":"Montevideo","latitude":-34.858,"longitude":-56.1711,"country":"Uruguay"},{"city":"Montevideo","latitude":44.9505,"longitude":-95.7154,"country":"United States"}],"Gujranwala":[{"city":"Gujranwala","latitude":32.1604,"longitude":74.185,"country":"Pakistan"}],"Niterói":[{"city":"Niterói","latitude":-22.9,"longitude":-43.1,"country":"Brazil"}],"Ganzhou":[{"city":"Ganzhou","latitude":25.92,"longitude":114.95,"country":"China"}],"Florence":[{"city":"Florence","latitude":43.78,"longitude":11.25,"country":"Italy"},{"city":"Florence","latitude":34.1782,"longitude":-79.7872,"country":"United States"},{"city":"Florence","latitude":34.8303,"longitude":-87.6654,"country":"United States"},{"city":"Florence","latitude":38.99,"longitude":-84.6471,"country":"United States"},{"city":"Florence","latitude":33.059,"longitude":-111.4209,"country":"United States"},{"city":"Florence","latitude":40.0978,"longitude":-74.7886,"country":"United States"},{"city":"Florence","latitude":43.9913,"longitude":-124.1062,"country":"United States"},{"city":"Florence","latitude":38.3835,"longitude":-105.1114,"country":"United States"}],"Liuzhou":[{"city":"Liuzhou","latitude":24.28,"longitude":109.25,"country":"China"}],"Bamako":[{"city":"Bamako","latitude":12.65,"longitude":-8,"country":"Mali"}],"Conakry":[{"city":"Conakry","latitude":9.5315,"longitude":-13.6802,"country":"Guinea"}],"Bursa":[{"city":"Bursa","latitude":40.2,"longitude":29.07,"country":"Turkey"}],"León de los Aldama":[{"city":"León de los Aldama","latitude":21.15,"longitude":-101.7,"country":"Mexico"}],"Virginia Beach":[{"city":"Virginia Beach","latitude":36.7335,"longitude":-76.0435,"country":"United States"}],"Nāsik":[{"city":"Nāsik","latitude":20.0004,"longitude":73.78,"country":"India"}],"Fushun":[{"city":"Fushun","latitude":41.8654,"longitude":123.87,"country":"China"}],"Changde":[{"city":"Changde","latitude":29.03,"longitude":111.68,"country":"China"}],"Daejeon":[{"city":"Daejeon","latitude":36.3355,"longitude":127.425,"country":"Korea, South"}],"Charlotte":[{"city":"Charlotte","latitude":35.2079,"longitude":-80.8304,"country":"United States"},{"city":"Charlotte","latitude":42.5662,"longitude":-84.8304,"country":"United States"}],"Phnom Penh":[{"city":"Phnom Penh","latitude":11.55,"longitude":104.9166,"country":"Cambodia"}],"Neijiang":[{"city":"Neijiang","latitude":29.5804,"longitude":105.05,"country":"China"}],"Quanzhou":[{"city":"Quanzhou","latitude":24.9,"longitude":118.58,"country":"China"}],"Kharkiv":[{"city":"Kharkiv","latitude":50,"longitude":36.25,"country":"Ukraine"}],"Hyderabad City":[{"city":"Hyderabad City","latitude":25.38,"longitude":68.375,"country":"Pakistan"}],"Bronx":[{"city":"Bronx","latitude":40.8501,"longitude":-73.8662,"country":"United States"}],"Lomé":[{"city":"Lomé","latitude":6.1319,"longitude":1.2228,"country":"Togo"}],"Córdoba":[{"city":"Córdoba","latitude":-31.4,"longitude":-64.1823,"country":"Argentina"},{"city":"Córdoba","latitude":37.88,"longitude":-4.77,"country":"Spain"},{"city":"Córdoba","latitude":18.9204,"longitude":-96.92,"country":"Mexico"}],"Huainan":[{"city":"Huainan","latitude":32.63,"longitude":116.98,"country":"China"}],"Doha":[{"city":"Doha","latitude":25.2866,"longitude":51.533,"country":"Qatar"}],"Kuala Lumpur":[{"city":"Kuala Lumpur","latitude":3.1667,"longitude":101.7,"country":"Malaysia"}],"Maputo":[{"city":"Maputo","latitude":-25.9553,"longitude":32.5892,"country":"Mozambique"}],"Kaduna":[{"city":"Kaduna","latitude":10.52,"longitude":7.44,"country":"Nigeria"}],"Gwangju":[{"city":"Gwangju","latitude":35.171,"longitude":126.9104,"country":"Korea, South"}],"Kawanakajima":[{"city":"Kawanakajima","latitude":35.53,"longitude":139.705,"country":"Japan"}],"San Salvador":[{"city":"San Salvador","latitude":13.71,"longitude":-89.203,"country":"El Salvador"}],"Suining":[{"city":"Suining","latitude":30.5333,"longitude":105.5333,"country":"China"}],"Lyon":[{"city":"Lyon","latitude":45.77,"longitude":4.83,"country":"France"}],"Karaj":[{"city":"Karaj","latitude":35.8004,"longitude":50.97,"country":"Iran"}],"Kampala":[{"city":"Kampala","latitude":0.3167,"longitude":32.5833,"country":"Uganda"}],"Tabrīz":[{"city":"Tabrīz","latitude":38.0863,"longitude":46.3012,"country":"Iran"}],"The Hague":[{"city":"The Hague","latitude":52.08,"longitude":4.27,"country":"Netherlands"}],"Davao":[{"city":"Davao","latitude":7.11,"longitude":125.63,"country":"Philippines"}],"Marseille":[{"city":"Marseille","latitude":43.29,"longitude":5.375,"country":"France"}],"Meerut":[{"city":"Meerut","latitude":29.0004,"longitude":77.7,"country":"India"}],"Mianyang":[{"city":"Mianyang","latitude":31.47,"longitude":104.77,"country":"China"}],"Semarang":[{"city":"Semarang","latitude":-6.9666,"longitude":110.42,"country":"Indonesia"}],"Farīdābād":[{"city":"Farīdābād","latitude":28.4333,"longitude":77.3167,"country":"India"}],"Novosibirsk":[{"city":"Novosibirsk","latitude":55.03,"longitude":82.96,"country":"Russia"}],"Mecca":[{"city":"Mecca","latitude":21.43,"longitude":39.82,"country":"Saudi Arabia"},{"city":"Mecca","latitude":33.5767,"longitude":-116.0645,"country":"United States"}],"Dubai":[{"city":"Dubai","latitude":25.23,"longitude":55.28,"country":"United Arab Emirates"}],"Milwaukee":[{"city":"Milwaukee","latitude":43.0642,"longitude":-87.9673,"country":"United States"}],"Auckland":[{"city":"Auckland","latitude":-36.8481,"longitude":174.763,"country":"New Zealand"}],"Ma’anshan":[{"city":"Ma’anshan","latitude":31.7304,"longitude":118.48,"country":"China"}],"Brazzaville":[{"city":"Brazzaville","latitude":-4.2592,"longitude":15.2847,"country":"Congo (Brazzaville)"}],"Yiyang":[{"city":"Yiyang","latitude":28.6004,"longitude":112.33,"country":"China"}],"Vārānasi":[{"city":"Vārānasi","latitude":25.33,"longitude":83,"country":"India"}],"Lubumbashi":[{"city":"Lubumbashi","latitude":-11.68,"longitude":27.48,"country":"Congo (Kinshasa)"}],"Juárez":[{"city":"Juárez","latitude":31.6904,"longitude":-106.49,"country":"Mexico"}],"Ghāziābād":[{"city":"Ghāziābād","latitude":28.6604,"longitude":77.4084,"country":"India"}],"Pretoria":[{"city":"Pretoria","latitude":-25.7069,"longitude":28.2294,"country":"South Africa"}],"Heze":[{"city":"Heze","latitude":35.23,"longitude":115.45,"country":"China"}],"Porto":[{"city":"Porto","latitude":41.15,"longitude":-8.62,"country":"Portugal"}],"Āsansol":[{"city":"Āsansol","latitude":23.6833,"longitude":86.9833,"country":"India"}],"Lusaka":[{"city":"Lusaka","latitude":-15.4166,"longitude":28.2833,"country":"Zambia"}],"Changzhou":[{"city":"Changzhou","latitude":31.78,"longitude":119.97,"country":"China"}],"Mosul":[{"city":"Mosul","latitude":36.345,"longitude":43.145,"country":"Iraq"}],"Yekaterinburg":[{"city":"Yekaterinburg","latitude":56.85,"longitude":60.6,"country":"Russia"}],"Peshawar":[{"city":"Peshawar","latitude":34.005,"longitude":71.535,"country":"Pakistan"}],"Mandalay":[{"city":"Mandalay","latitude":21.97,"longitude":96.085,"country":"Burma"}],"Jamshedpur":[{"city":"Jamshedpur","latitude":22.7875,"longitude":86.1975,"country":"India"}],"Mbuji-Mayi":[{"city":"Mbuji-Mayi","latitude":-6.15,"longitude":23.6,"country":"Congo (Kinshasa)"}],"Madura":[{"city":"Madura","latitude":9.92,"longitude":78.12,"country":"India"}],"Adana":[{"city":"Adana","latitude":36.995,"longitude":35.32,"country":"Turkey"}],"Sheffield":[{"city":"Sheffield","latitude":53.3667,"longitude":-1.5,"country":"United Kingdom"},{"city":"Sheffield","latitude":34.7559,"longitude":-87.7007,"country":"United States"}],"Jabalpur":[{"city":"Jabalpur","latitude":23.1751,"longitude":79.9551,"country":"India"}],"San José":[{"city":"San José","latitude":9.935,"longitude":-84.0841,"country":"Costa Rica"},{"city":"San José","latitude":-34.35,"longitude":-56.71,"country":"Uruguay"}],"Panama City":[{"city":"Panama City","latitude":8.968,"longitude":-79.533,"country":"Panama"},{"city":"Panama City","latitude":30.1995,"longitude":-85.6003,"country":"United States"}],"Nizhniy Novgorod":[{"city":"Nizhniy Novgorod","latitude":56.333,"longitude":44.0001,"country":"Russia"}],"Chifeng":[{"city":"Chifeng","latitude":42.27,"longitude":118.95,"country":"China"}],"Duisburg":[{"city":"Duisburg","latitude":51.43,"longitude":6.75,"country":"Germany"}],"Munich":[{"city":"Munich","latitude":48.1299,"longitude":11.575,"country":"Germany"}],"Huaiyin":[{"city":"Huaiyin","latitude":33.58,"longitude":119.03,"country":"China"}],"Stockholm":[{"city":"Stockholm","latitude":59.3508,"longitude":18.0973,"country":"Sweden"}],"Makassar":[{"city":"Makassar","latitude":-5.14,"longitude":119.432,"country":"Indonesia"}],"Rājkot":[{"city":"Rājkot","latitude":22.31,"longitude":70.8,"country":"India"}],"Dhanbād":[{"city":"Dhanbād","latitude":23.8004,"longitude":86.42,"country":"India"}],"Mudanjiang":[{"city":"Mudanjiang","latitude":44.575,"longitude":129.59,"country":"China"}],"Geneva":[{"city":"Geneva","latitude":46.21,"longitude":6.14,"country":"Switzerland"},{"city":"Geneva","latitude":42.8644,"longitude":-76.9827,"country":"United States"},{"city":"Geneva","latitude":41.8833,"longitude":-88.3242,"country":"United States"},{"city":"Geneva","latitude":41.8006,"longitude":-80.9462,"country":"United States"}],"Shīrāz":[{"city":"Shīrāz","latitude":29.63,"longitude":52.57,"country":"Iran"}],"Huzhou":[{"city":"Huzhou","latitude":30.8704,"longitude":120.1,"country":"China"}],"Beidao":[{"city":"Beidao","latitude":34.6,"longitude":105.92,"country":"China"}],"Shuangshui":[{"city":"Shuangshui","latitude":26.5944,"longitude":104.8333,"country":"China"}],"Düsseldorf":[{"city":"Düsseldorf","latitude":51.2204,"longitude":6.78,"country":"Germany"}],"Gaozhou":[{"city":"Gaozhou","latitude":21.9204,"longitude":110.87,"country":"China"}],"Sevilla":[{"city":"Sevilla","latitude":37.405,"longitude":-5.98,"country":"Spain"}],"Amritsar":[{"city":"Amritsar","latitude":31.64,"longitude":74.87,"country":"India"}],"Vila Velha":[{"city":"Vila Velha","latitude":-20.3676,"longitude":-40.318,"country":"Brazil"},{"city":"Vila Velha","latitude":3.2167,"longitude":-51.2167,"country":"Brazil"}],"Almaty":[{"city":"Almaty","latitude":43.325,"longitude":76.915,"country":"Kazakhstan"}],"Providence":[{"city":"Providence","latitude":41.823,"longitude":-71.4187,"country":"United States"},{"city":"Providence","latitude":41.7033,"longitude":-111.8122,"country":"United States"}],"Warangal":[{"city":"Warangal","latitude":18.01,"longitude":79.58,"country":"India"}],"Rosario":[{"city":"Rosario","latitude":-32.9511,"longitude":-60.6663,"country":"Argentina"}],"Allahābād":[{"city":"Allahābād","latitude":25.455,"longitude":81.84,"country":"India"}],"Benin City":[{"city":"Benin City","latitude":6.3405,"longitude":5.62,"country":"Nigeria"}],"Jining":[{"city":"Jining","latitude":35.4004,"longitude":116.55,"country":"China"},{"city":"Jining","latitude":41.03,"longitude":113.08,"country":"China"}],"Maceió":[{"city":"Maceió","latitude":-9.62,"longitude":-35.73,"country":"Brazil"}],"Sofia":[{"city":"Sofia","latitude":42.6833,"longitude":23.3167,"country":"Bulgaria"}],"Abbottabad":[{"city":"Abbottabad","latitude":34.1495,"longitude":73.1995,"country":"Pakistan"}],"Benghazi":[{"city":"Benghazi","latitude":32.1167,"longitude":20.0667,"country":"Libya"}],"Cilacap":[{"city":"Cilacap","latitude":-7.7188,"longitude":109.0154,"country":"Indonesia"}],"Prague":[{"city":"Prague","latitude":50.0833,"longitude":14.466,"country":"Czechia"}],"Glasgow":[{"city":"Glasgow","latitude":55.8744,"longitude":-4.2507,"country":"United Kingdom"},{"city":"Glasgow","latitude":39.6015,"longitude":-75.7474,"country":"United States"},{"city":"Glasgow","latitude":37.0047,"longitude":-85.9263,"country":"United States"}],"Leshan":[{"city":"Leshan","latitude":29.5671,"longitude":103.7333,"country":"China"}],"Jacksonville":[{"city":"Jacksonville","latitude":30.3322,"longitude":-81.6749,"country":"United States"},{"city":"Jacksonville","latitude":34.7287,"longitude":-77.394,"country":"United States"},{"city":"Jacksonville","latitude":34.8807,"longitude":-92.1302,"country":"United States"},{"city":"Jacksonville","latitude":39.7292,"longitude":-90.2316,"country":"United States"},{"city":"Jacksonville","latitude":31.9642,"longitude":-95.2617,"country":"United States"},{"city":"Jacksonville","latitude":33.8088,"longitude":-85.7544,"country":"United States"}],"Ouagadougou":[{"city":"Ouagadougou","latitude":12.3703,"longitude":-1.5247,"country":"Burkina Faso"}],"Ottawa":[{"city":"Ottawa","latitude":45.4167,"longitude":-75.7,"country":"Canada"},{"city":"Ottawa","latitude":41.3532,"longitude":-88.8307,"country":"United States"},{"city":"Ottawa","latitude":38.6,"longitude":-95.2642,"country":"United States"},{"city":"Ottawa","latitude":41.0203,"longitude":-84.0354,"country":"United States"}],"Adelaide":[{"city":"Adelaide","latitude":-34.935,"longitude":138.6,"country":"Australia"}],"Shangrao":[{"city":"Shangrao","latitude":28.4704,"longitude":117.97,"country":"China"}],"Torreón":[{"city":"Torreón","latitude":25.5701,"longitude":-103.42,"country":"Mexico"}],"Srīnagar":[{"city":"Srīnagar","latitude":34.1,"longitude":74.815,"country":"India"}],"Bezwāda":[{"city":"Bezwāda","latitude":16.52,"longitude":80.63,"country":"India"}],"Samara":[{"city":"Samara","latitude":53.195,"longitude":50.1513,"country":"Russia"}],"Omsk":[{"city":"Omsk","latitude":54.99,"longitude":73.4,"country":"Russia"}],"Newcastle":[{"city":"Newcastle","latitude":-32.8453,"longitude":151.815,"country":"Australia"},{"city":"Newcastle","latitude":47.5303,"longitude":-122.1633,"country":"United States"},{"city":"Newcastle","latitude":35.2404,"longitude":-97.5998,"country":"United States"}],"Yulin":[{"city":"Yulin","latitude":22.63,"longitude":110.15,"country":"China"}],"Namp’o":[{"city":"Namp’o","latitude":38.7669,"longitude":125.4524,"country":"Korea, North"}],"Xianyang":[{"city":"Xianyang","latitude":34.3456,"longitude":108.7147,"country":"China"}],"Cagayan de Oro":[{"city":"Cagayan de Oro","latitude":8.4508,"longitude":124.6853,"country":"Philippines"}],"Cần Thơ":[{"city":"Cần Thơ","latitude":10.05,"longitude":105.77,"country":"Vietnam"}],"Barquisimeto":[{"city":"Barquisimeto","latitude":10.05,"longitude":-69.3,"country":"Venezuela"}],"Helsinki":[{"city":"Helsinki","latitude":60.1756,"longitude":24.9341,"country":"Finland"}],"Kazan’":[{"city":"Kazan’","latitude":55.7499,"longitude":49.1263,"country":"Russia"}],"Aurangābād":[{"city":"Aurangābād","latitude":19.8957,"longitude":75.3203,"country":"India"},{"city":"Aurangābād","latitude":24.7704,"longitude":84.38,"country":"India"}],"Calgary":[{"city":"Calgary","latitude":51.083,"longitude":-114.08,"country":"Canada"}],"Ciudad Nezahualcóyotl":[{"city":"Ciudad Nezahualcóyotl","latitude":19.41,"longitude":-99.03,"country":"Mexico"}],"Zürich":[{"city":"Zürich","latitude":47.38,"longitude":8.55,"country":"Switzerland"}],"Baoding":[{"city":"Baoding","latitude":38.8704,"longitude":115.48,"country":"China"}],"Zigong":[{"city":"Zigong","latitude":29.4,"longitude":104.78,"country":"China"}],"Sharjah":[{"city":"Sharjah","latitude":25.3714,"longitude":55.4065,"country":"United Arab Emirates"}],"Yerevan":[{"city":"Yerevan","latitude":40.1812,"longitude":44.5136,"country":"Armenia"}],"Mogadishu":[{"city":"Mogadishu","latitude":2.0667,"longitude":45.3667,"country":"Somalia"}],"Tbilisi":[{"city":"Tbilisi","latitude":41.725,"longitude":44.7908,"country":"Georgia"}],"Ankang":[{"city":"Ankang","latitude":32.68,"longitude":109.02,"country":"China"}],"Huambo":[{"city":"Huambo","latitude":-12.75,"longitude":15.76,"country":"Angola"}],"Ikare":[{"city":"Ikare","latitude":7.5304,"longitude":5.76,"country":"Nigeria"}],"Belgrade":[{"city":"Belgrade","latitude":44.8186,"longitude":20.468,"country":"Serbia"},{"city":"Belgrade","latitude":45.7796,"longitude":-111.1751,"country":"United States"}],"Salt Lake City":[{"city":"Salt Lake City","latitude":40.7774,"longitude":-111.93,"country":"United States"}],"Bhilai":[{"city":"Bhilai","latitude":21.2167,"longitude":81.4333,"country":"India"}],"Jinhua":[{"city":"Jinhua","latitude":29.12,"longitude":119.65,"country":"China"}],"Chelyabinsk":[{"city":"Chelyabinsk","latitude":55.155,"longitude":61.4387,"country":"Russia"}],"Natal":[{"city":"Natal","latitude":-5.78,"longitude":-35.24,"country":"Brazil"},{"city":"Natal","latitude":-6.9838,"longitude":-60.2699,"country":"Brazil"}],"Dushanbe":[{"city":"Dushanbe","latitude":38.56,"longitude":68.7739,"country":"Tajikistan"}],"Copenhagen":[{"city":"Copenhagen","latitude":55.6786,"longitude":12.5635,"country":"Denmark"}],"Changwon":[{"city":"Changwon","latitude":35.2191,"longitude":128.5836,"country":"Korea, South"}],"Zhuzhou":[{"city":"Zhuzhou","latitude":27.83,"longitude":113.15,"country":"China"}],"Suwon":[{"city":"Suwon","latitude":37.2578,"longitude":127.0109,"country":"Korea, South"}],"Nashville":[{"city":"Nashville","latitude":36.1715,"longitude":-86.7843,"country":"United States"},{"city":"Nashville","latitude":35.9693,"longitude":-77.9552,"country":"United States"}],"Vereeniging":[{"city":"Vereeniging","latitude":-26.6496,"longitude":27.96,"country":"South Africa"}],"Xiangyang":[{"city":"Xiangyang","latitude":32.02,"longitude":112.13,"country":"China"}],"Memphis":[{"city":"Memphis","latitude":35.1046,"longitude":-89.9773,"country":"United States"},{"city":"Memphis","latitude":27.5435,"longitude":-82.5607,"country":"United States"}],"Ulsan":[{"city":"Ulsan","latitude":35.5467,"longitude":129.317,"country":"Korea, South"}],"Amman":[{"city":"Amman","latitude":31.95,"longitude":35.9333,"country":"Jordan"}],"Mizhou":[{"city":"Mizhou","latitude":35.99,"longitude":119.3801,"country":"China"}],"Richmond":[{"city":"Richmond","latitude":37.5295,"longitude":-77.4756,"country":"United States"},{"city":"Richmond","latitude":37.9477,"longitude":-122.339,"country":"United States"},{"city":"Richmond","latitude":-41.339,"longitude":173.185,"country":"New Zealand"},{"city":"Richmond","latitude":39.8318,"longitude":-84.8904,"country":"United States"},{"city":"Richmond","latitude":37.7306,"longitude":-84.2926,"country":"United States"},{"city":"Richmond","latitude":-33.5995,"longitude":150.74,"country":"Australia"},{"city":"Richmond","latitude":29.5824,"longitude":-95.7602,"country":"United States"},{"city":"Richmond","latitude":42.8094,"longitude":-82.7517,"country":"United States"},{"city":"Richmond","latitude":39.2755,"longitude":-93.9731,"country":"United States"},{"city":"Richmond","latitude":41.4983,"longitude":-71.6608,"country":"United States"},{"city":"Richmond","latitude":-20.7163,"longitude":143.1333,"country":"Australia"}],"Dublin":[{"city":"Dublin","latitude":53.3331,"longitude":-6.2489,"country":"Ireland"},{"city":"Dublin","latitude":37.7161,"longitude":-121.8964,"country":"United States"},{"city":"Dublin","latitude":40.1112,"longitude":-83.1453,"country":"United States"},{"city":"Dublin","latitude":32.5359,"longitude":-82.9279,"country":"United States"}],"Edmonton":[{"city":"Edmonton","latitude":53.55,"longitude":-113.5,"country":"Canada"}],"Solāpur":[{"city":"Solāpur","latitude":17.6704,"longitude":75.9,"country":"India"}],"Rostov-na-Donu":[{"city":"Rostov-na-Donu","latitude":47.2346,"longitude":39.7127,"country":"Russia"}],"Dnipro":[{"city":"Dnipro","latitude":48.48,"longitude":35,"country":"Ukraine"}],"Xining":[{"city":"Xining","latitude":36.62,"longitude":101.77,"country":"China"}],"Zhangjiakou":[{"city":"Zhangjiakou","latitude":40.83,"longitude":114.93,"country":"China"}],"Lille":[{"city":"Lille","latitude":50.65,"longitude":3.08,"country":"France"}],"Ranchi":[{"city":"Ranchi","latitude":23.37,"longitude":85.33,"country":"India"}],"Gaziantep":[{"city":"Gaziantep","latitude":37.075,"longitude":37.385,"country":"Turkey"}],"Monrovia":[{"city":"Monrovia","latitude":6.3106,"longitude":-10.8048,"country":"Liberia"},{"city":"Monrovia","latitude":34.165,"longitude":-117.9921,"country":"United States"}],"São Luís":[{"city":"São Luís","latitude":-2.516,"longitude":-44.266,"country":"Brazil"}],"Amsterdam":[{"city":"Amsterdam","latitude":52.35,"longitude":4.9166,"country":"Netherlands"},{"city":"Amsterdam","latitude":42.942,"longitude":-74.1907,"country":"United States"}],"Jerusalem":[{"city":"Jerusalem","latitude":31.7784,"longitude":35.2066,"country":"Israel"}],"New Orleans":[{"city":"New Orleans","latitude":30.0687,"longitude":-89.9288,"country":"United States"}],"Guatemala City":[{"city":"Guatemala City","latitude":14.6211,"longitude":-90.527,"country":"Guatemala"}],"Zhuhai":[{"city":"Zhuhai","latitude":22.2769,"longitude":113.5678,"country":"China"}],"Florianópolis":[{"city":"Florianópolis","latitude":-27.58,"longitude":-48.52,"country":"Brazil"}],"Port Elizabeth":[{"city":"Port Elizabeth","latitude":-33.97,"longitude":25.6,"country":"South Africa"}],"Jiamusi":[{"city":"Jiamusi","latitude":46.83,"longitude":130.35,"country":"China"}],"Port Harcourt":[{"city":"Port Harcourt","latitude":4.81,"longitude":7.01,"country":"Nigeria"}],"Raleigh":[{"city":"Raleigh","latitude":35.8324,"longitude":-78.6438,"country":"United States"}],"Ufa":[{"city":"Ufa","latitude":54.79,"longitude":56.04,"country":"Russia"}],"Hengyang":[{"city":"Hengyang","latitude":26.88,"longitude":112.59,"country":"China"}],"Benxi":[{"city":"Benxi","latitude":41.3304,"longitude":123.75,"country":"China"}],"Louisville":[{"city":"Louisville","latitude":38.1663,"longitude":-85.6485,"country":"United States"},{"city":"Louisville","latitude":39.9709,"longitude":-105.1441,"country":"United States"},{"city":"Louisville","latitude":40.837,"longitude":-81.2644,"country":"United States"}],"Haifa":[{"city":"Haifa","latitude":32.8204,"longitude":34.98,"country":"Israel"}],"Medina":[{"city":"Medina","latitude":24.5,"longitude":39.58,"country":"Saudi Arabia"},{"city":"Medina","latitude":41.1358,"longitude":-81.8694,"country":"United States"},{"city":"Medina","latitude":43.2197,"longitude":-78.3888,"country":"United States"},{"city":"Medina","latitude":45.0326,"longitude":-93.5834,"country":"United States"}],"Bucaramanga":[{"city":"Bucaramanga","latitude":7.1301,"longitude":-73.1259,"country":"Colombia"}],"Maracay":[{"city":"Maracay","latitude":10.2469,"longitude":-67.5958,"country":"Venezuela"}],"Rotterdam":[{"city":"Rotterdam","latitude":51.92,"longitude":4.48,"country":"Netherlands"},{"city":"Rotterdam","latitude":42.8133,"longitude":-74.0129,"country":"United States"}],"Homs":[{"city":"Homs","latitude":34.73,"longitude":36.72,"country":"Syria"}],"Cologne":[{"city":"Cologne","latitude":50.93,"longitude":6.95,"country":"Germany"}],"Qinhuangdao":[{"city":"Qinhuangdao","latitude":39.9304,"longitude":119.62,"country":"China"}],"Fès":[{"city":"Fès","latitude":34.0546,"longitude":-5.0004,"country":"Morocco"}],"N’Djamena":[{"city":"N’Djamena","latitude":12.1131,"longitude":15.0491,"country":"Chad"}],"Tegucigalpa":[{"city":"Tegucigalpa","latitude":14.102,"longitude":-87.2175,"country":"Honduras"}],"Kingston":[{"city":"Kingston","latitude":17.9771,"longitude":-76.7674,"country":"Jamaica"},{"city":"Kingston","latitude":44.2337,"longitude":-76.4833,"country":"Canada"},{"city":"Kingston","latitude":41.2652,"longitude":-75.8875,"country":"United States"},{"city":"Kingston","latitude":41.9295,"longitude":-73.9968,"country":"United States"},{"city":"Kingston","latitude":-42.9911,"longitude":147.3084,"country":"Australia"},{"city":"Kingston","latitude":41.9862,"longitude":-70.7482,"country":"United States"},{"city":"Kingston","latitude":41.4738,"longitude":-71.5236,"country":"United States"},{"city":"Kingston","latitude":35.8713,"longitude":-84.4959,"country":"United States"},{"city":"Kingston","latitude":42.9156,"longitude":-71.0665,"country":"United States"}],"Nay Pyi Taw":[{"city":"Nay Pyi Taw","latitude":19.7666,"longitude":96.1186,"country":"Burma"}],"Djibouti":[{"city":"Djibouti","latitude":11.595,"longitude":43.148,"country":"Djibouti"}],"Managua":[{"city":"Managua","latitude":12.153,"longitude":-86.2685,"country":"Nicaragua"}],"Niamey":[{"city":"Niamey","latitude":13.5167,"longitude":2.1167,"country":"Niger"}],"Tirana":[{"city":"Tirana","latitude":41.3275,"longitude":19.8189,"country":"Albania"}],"Kathmandu":[{"city":"Kathmandu","latitude":27.7167,"longitude":85.3166,"country":"Nepal"}],"Ulaanbaatar":[{"city":"Ulaanbaatar","latitude":47.9167,"longitude":106.9166,"country":"Mongolia"}],"Kigali":[{"city":"Kigali","latitude":-1.9536,"longitude":30.0605,"country":"Rwanda"}],"Bishkek":[{"city":"Bishkek","latitude":42.8731,"longitude":74.5852,"country":"Kyrgyzstan"}],"Oslo":[{"city":"Oslo","latitude":59.9167,"longitude":10.75,"country":"Norway"}],"Bangui":[{"city":"Bangui","latitude":4.3666,"longitude":18.5583,"country":"Central African Republic"}],"Freetown":[{"city":"Freetown","latitude":8.47,"longitude":-13.2342,"country":"Sierra Leone"},{"city":"Freetown","latitude":41.7714,"longitude":-71.0157,"country":"United States"}],"Islamabad":[{"city":"Islamabad","latitude":33.7,"longitude":73.1666,"country":"Pakistan"}],"Cotonou":[{"city":"Cotonou","latitude":6.4,"longitude":2.52,"country":"Benin"}],"Vientiane":[{"city":"Vientiane","latitude":17.9667,"longitude":102.6,"country":"Laos"}],"Riga":[{"city":"Riga","latitude":56.95,"longitude":24.1,"country":"Latvia"},{"city":"Riga","latitude":43.0802,"longitude":-77.8753,"country":"United States"}],"Nouakchott":[{"city":"Nouakchott","latitude":18.0864,"longitude":-15.9753,"country":"Mauritania"}],"Muscat":[{"city":"Muscat","latitude":23.6133,"longitude":58.5933,"country":"Oman"}],"Ashgabat":[{"city":"Ashgabat","latitude":37.95,"longitude":58.3833,"country":"Turkmenistan"}],"Zagreb":[{"city":"Zagreb","latitude":45.8,"longitude":16,"country":"Croatia"}],"Sarajevo":[{"city":"Sarajevo","latitude":43.85,"longitude":18.383,"country":"Bosnia And Herzegovina"}],"Chisinau":[{"city":"Chisinau","latitude":47.005,"longitude":28.8577,"country":"Moldova"}],"Lilongwe":[{"city":"Lilongwe","latitude":-13.9833,"longitude":33.7833,"country":"Malawi"}],"Asmara":[{"city":"Asmara","latitude":15.3333,"longitude":38.9333,"country":"Eritrea"}],"Abu Dhabi":[{"city":"Abu Dhabi","latitude":24.4667,"longitude":54.3666,"country":"United Arab Emirates"}],"Port Louis":[{"city":"Port Louis","latitude":-20.1666,"longitude":57.5,"country":"Mauritius"}],"Libreville":[{"city":"Libreville","latitude":0.3854,"longitude":9.458,"country":"Gabon"}],"Manama":[{"city":"Manama","latitude":26.2361,"longitude":50.5831,"country":"Bahrain"}],"Vilnius":[{"city":"Vilnius","latitude":54.6834,"longitude":25.3166,"country":"Lithuania"}],"Skopje":[{"city":"Skopje","latitude":42,"longitude":21.4335,"country":"Macedonia"}],"Bloemfontein":[{"city":"Bloemfontein","latitude":-29.12,"longitude":26.2299,"country":"South Africa"}],"Bratislava":[{"city":"Bratislava","latitude":48.15,"longitude":17.117,"country":"Slovakia"}],"Bissau":[{"city":"Bissau","latitude":11.865,"longitude":-15.5984,"country":"Guinea-Bissau"}],"Tallinn":[{"city":"Tallinn","latitude":59.4339,"longitude":24.728,"country":"Estonia"}],"Wellington":[{"city":"Wellington","latitude":-41.3,"longitude":174.7833,"country":"New Zealand"},{"city":"Wellington","latitude":26.6464,"longitude":-80.2706,"country":"United States"},{"city":"Wellington","latitude":40.7007,"longitude":-105.0057,"country":"United States"},{"city":"Wellington","latitude":37.2622,"longitude":-97.4281,"country":"United States"}],"Valletta":[{"city":"Valletta","latitude":35.8997,"longitude":14.5147,"country":"Malta"}],"Maseru":[{"city":"Maseru","latitude":-29.3167,"longitude":27.4833,"country":"Lesotho"}],"Nur-Sultan":[{"city":"Nur-Sultan","latitude":51.1811,"longitude":71.4278,"country":"Kazakhstan"}],"Bujumbura":[{"city":"Bujumbura","latitude":-3.3761,"longitude":29.36,"country":"Burundi"}],"Canberra":[{"city":"Canberra","latitude":-35.283,"longitude":149.129,"country":"Australia"}],"New Delhi":[{"city":"New Delhi","latitude":28.6,"longitude":77.2,"country":"India"}],"Ljubljana":[{"city":"Ljubljana","latitude":46.0553,"longitude":14.515,"country":"Slovenia"}],"Porto-Novo":[{"city":"Porto-Novo","latitude":6.4833,"longitude":2.6166,"country":"Benin"}],"Bandar Seri Begawan":[{"city":"Bandar Seri Begawan","latitude":4.8833,"longitude":114.9333,"country":"Brunei"}],"Port of Spain":[{"city":"Port of Spain","latitude":10.652,"longitude":-61.517,"country":"Trinidad And Tobago"}],"Port Moresby":[{"city":"Port Moresby","latitude":-9.4647,"longitude":147.1925,"country":"Papua New Guinea"}],"Bern":[{"city":"Bern","latitude":46.9167,"longitude":7.467,"country":"Switzerland"}],"Windhoek":[{"city":"Windhoek","latitude":-22.57,"longitude":17.0835,"country":"Namibia"}],"Georgetown":[{"city":"Georgetown","latitude":6.802,"longitude":-58.167,"country":"Guyana"},{"city":"Georgetown","latitude":-7.9286,"longitude":-14.4119,"country":"Saint Helena, Ascension, And Tristan Da Cunha"},{"city":"Georgetown","latitude":30.6668,"longitude":-97.6953,"country":"United States"},{"city":"Georgetown","latitude":38.2251,"longitude":-84.5481,"country":"United States"},{"city":"Georgetown","latitude":31.9849,"longitude":-81.226,"country":"United States"},{"city":"Georgetown","latitude":33.3595,"longitude":-79.2958,"country":"United States"},{"city":"Georgetown","latitude":38.6899,"longitude":-75.3872,"country":"United States"},{"city":"Georgetown","latitude":42.724,"longitude":-70.9821,"country":"United States"},{"city":"Georgetown","latitude":-18.3,"longitude":143.5333,"country":"Australia"}],"Paramaribo":[{"city":"Paramaribo","latitude":5.835,"longitude":-55.167,"country":"Suriname"}],"Dili":[{"city":"Dili","latitude":-8.5594,"longitude":125.5795,"country":"Timor-Leste"}],"Nassau":[{"city":"Nassau","latitude":25.0834,"longitude":-77.35,"country":"Bahamas, The"}],"Sucre":[{"city":"Sucre","latitude":-19.041,"longitude":-65.2595,"country":"Bolivia"}],"Nicosia":[{"city":"Nicosia","latitude":35.1667,"longitude":33.3666,"country":"Cyprus"}],"Dodoma":[{"city":"Dodoma","latitude":-6.1833,"longitude":35.75,"country":"Tanzania"}],"Colombo":[{"city":"Colombo","latitude":6.932,"longitude":79.8578,"country":"Sri Lanka"}],"Gaborone":[{"city":"Gaborone","latitude":-24.6463,"longitude":25.9119,"country":"Botswana"}],"Yamoussoukro":[{"city":"Yamoussoukro","latitude":6.8184,"longitude":-5.2755,"country":"Côte D’Ivoire"}],"Bridgetown":[{"city":"Bridgetown","latitude":13.102,"longitude":-59.6165,"country":"Barbados"},{"city":"Bridgetown","latitude":39.1551,"longitude":-84.6359,"country":"United States"}],"Suva":[{"city":"Suva","latitude":-18.133,"longitude":178.4417,"country":"Fiji"}],"Reykjavík":[{"city":"Reykjavík","latitude":64.15,"longitude":-21.95,"country":"Iceland"}],"Malabo":[{"city":"Malabo","latitude":3.75,"longitude":8.7833,"country":"Equatorial Guinea"}],"Willemstad":[{"city":"Willemstad","latitude":12.2004,"longitude":-69.02,"country":"Curaçao"}],"Podgorica":[{"city":"Podgorica","latitude":42.466,"longitude":19.2663,"country":"Montenegro"}],"Moroni":[{"city":"Moroni","latitude":-11.7042,"longitude":43.2402,"country":"Comoros"}],"Sri Jayewardenepura Kotte":[{"city":"Sri Jayewardenepura Kotte","latitude":6.9,"longitude":79.95,"country":"Sri Lanka"}],"Praia":[{"city":"Praia","latitude":14.9167,"longitude":-23.5167,"country":"Cabo Verde"}],"Male":[{"city":"Male","latitude":4.1667,"longitude":73.4999,"country":"Maldives"}],"Juba":[{"city":"Juba","latitude":4.83,"longitude":31.58,"country":"South Sudan"}],"Luxembourg":[{"city":"Luxembourg","latitude":49.6117,"longitude":6.13,"country":"Luxembourg"}],"Thimphu":[{"city":"Thimphu","latitude":27.473,"longitude":89.639,"country":"Bhutan"}],"Mbabane":[{"city":"Mbabane","latitude":-26.3167,"longitude":31.1333,"country":"Swaziland"}],"São Tomé":[{"city":"São Tomé","latitude":0.3334,"longitude":6.7333,"country":"Sao Tome And Principe"}],"Honiara":[{"city":"Honiara","latitude":-9.438,"longitude":159.9498,"country":"Solomon Islands"}],"Oranjestad":[{"city":"Oranjestad","latitude":12.5304,"longitude":-70.029,"country":"Aruba"}],"Apia":[{"city":"Apia","latitude":-13.8415,"longitude":-171.7386,"country":"Samoa"}],"Andorra la Vella":[{"city":"Andorra la Vella","latitude":42.5,"longitude":1.5165,"country":"Andorra"}],"Kingstown":[{"city":"Kingstown","latitude":13.1483,"longitude":-61.2121,"country":"Saint Vincent And The Grenadines"}],"Port-Vila":[{"city":"Port-Vila","latitude":-17.7334,"longitude":168.3166,"country":"Vanuatu"}],"Banjul":[{"city":"Banjul","latitude":13.4539,"longitude":-16.5917,"country":"Gambia, The"}],"Nuku‘alofa":[{"city":"Nuku‘alofa","latitude":-21.1385,"longitude":-175.2206,"country":"Tonga"}],"Castries":[{"city":"Castries","latitude":14.002,"longitude":-61,"country":"Saint Lucia"}],"Monaco":[{"city":"Monaco","latitude":43.7396,"longitude":7.4069,"country":"Monaco"}],"Vaduz":[{"city":"Vaduz","latitude":47.1337,"longitude":9.5167,"country":"Liechtenstein"}],"Saint John’s":[{"city":"Saint John’s","latitude":17.118,"longitude":-61.85,"country":"Antigua And Barbuda"},{"city":"Saint John’s","latitude":47.585,"longitude":-52.681,"country":"Canada"}],"Saint George’s":[{"city":"Saint George’s","latitude":12.0526,"longitude":-61.7416,"country":"Grenada"}],"Victoria":[{"city":"Victoria","latitude":-4.6166,"longitude":55.45,"country":"Seychelles"},{"city":"Victoria","latitude":48.4333,"longitude":-123.35,"country":"Canada"},{"city":"Victoria","latitude":36.0444,"longitude":14.2397,"country":"Malta"},{"city":"Victoria","latitude":28.8285,"longitude":-96.985,"country":"United States"},{"city":"Victoria","latitude":-32.61,"longitude":-60.18,"country":"Argentina"},{"city":"Victoria","latitude":-38.2395,"longitude":-72.34,"country":"Chile"},{"city":"Victoria","latitude":44.8634,"longitude":-93.6586,"country":"United States"}],"San Marino":[{"city":"San Marino","latitude":43.9172,"longitude":12.4667,"country":"San Marino"},{"city":"San Marino","latitude":34.1224,"longitude":-118.1132,"country":"United States"}],"Tarawa":[{"city":"Tarawa","latitude":1.3382,"longitude":173.0176,"country":"Kiribati"}],"Majuro":[{"city":"Majuro","latitude":7.103,"longitude":171.38,"country":"Marshall Islands"}],"Roseau":[{"city":"Roseau","latitude":15.301,"longitude":-61.387,"country":"Dominica"}],"Basseterre":[{"city":"Basseterre","latitude":17.302,"longitude":-62.717,"country":"Saint Kitts And Nevis"}],"Belmopan":[{"city":"Belmopan","latitude":17.252,"longitude":-88.7671,"country":"Belize"}],"Pago Pago":[{"city":"Pago Pago","latitude":-14.274,"longitude":-170.7046,"country":"American Samoa"}],"Lobamba":[{"city":"Lobamba","latitude":-26.4667,"longitude":31.2,"country":"Swaziland"}],"Funafuti":[{"city":"Funafuti","latitude":-8.5167,"longitude":179.2166,"country":"Tuvalu"}],"Palikir":[{"city":"Palikir","latitude":6.9166,"longitude":158.15,"country":"Micronesia, Federated States Of"}],"Capitol Hill":[{"city":"Capitol Hill","latitude":15.2137,"longitude":145.7546,"country":"Northern Mariana Islands"}],"Hagåtña":[{"city":"Hagåtña","latitude":13.4745,"longitude":144.7504,"country":"Guam"}],"Al Quds":[{"city":"Al Quds","latitude":31.7764,"longitude":35.2269,"country":"West Bank"}],"Philipsburg":[{"city":"Philipsburg","latitude":18.0255,"longitude":-63.045,"country":"Sint Maarten"},{"city":"Philipsburg","latitude":40.8952,"longitude":-78.2147,"country":"United States"}],"Gitega":[{"city":"Gitega","latitude":-3.4271,"longitude":29.9246,"country":"Burundi"},{"city":"Gitega","latitude":-3.426,"longitude":29.8436,"country":"Burundi"}],"Pristina":[{"city":"Pristina","latitude":42.6666,"longitude":21.1724,"country":"Kosovo"}],"Ngerulmud":[{"city":"Ngerulmud","latitude":7.5,"longitude":134.6242,"country":"Palau"}],"Aden":[{"city":"Aden","latitude":12.7797,"longitude":45.0095,"country":"Yemen"}],"Cochabamba":[{"city":"Cochabamba","latitude":-17.41,"longitude":-66.17,"country":"Bolivia"}],"Yongzhou":[{"city":"Yongzhou","latitude":26.2304,"longitude":111.62,"country":"China"}],"Baoshan":[{"city":"Baoshan","latitude":25.12,"longitude":99.15,"country":"China"}],"Quảng Hà":[{"city":"Quảng Hà","latitude":16.06,"longitude":108.25,"country":"Vietnam"}],"Kitaku":[{"city":"Kitaku","latitude":33.8704,"longitude":130.82,"country":"Japan"}],"Perm’":[{"city":"Perm’","latitude":58,"longitude":56.25,"country":"Russia"},{"city":"Perm’","latitude":58.0174,"longitude":56.2855,"country":"Russia"}],"Ahvāz":[{"city":"Ahvāz","latitude":31.28,"longitude":48.72,"country":"Iran"}],"Jodhpur":[{"city":"Jodhpur","latitude":26.2918,"longitude":73.0168,"country":"India"}],"San Luis Potosí":[{"city":"San Luis Potosí","latitude":22.17,"longitude":-101,"country":"Mexico"}],"Odesa":[{"city":"Odesa","latitude":46.49,"longitude":30.71,"country":"Ukraine"}],"Yinchuan":[{"city":"Yinchuan","latitude":38.468,"longitude":106.273,"country":"China"}],"Jiaxing":[{"city":"Jiaxing","latitude":30.7704,"longitude":120.75,"country":"China"}],"Joinvile":[{"city":"Joinvile","latitude":-26.32,"longitude":-48.8399,"country":"Brazil"}],"Donets’k":[{"city":"Donets’k","latitude":48,"longitude":37.83,"country":"Ukraine"}],"Guilin":[{"city":"Guilin","latitude":25.28,"longitude":110.28,"country":"China"}],"Dahūk":[{"city":"Dahūk","latitude":36.8667,"longitude":43,"country":"Iraq"}],"Volgograd":[{"city":"Volgograd","latitude":48.71,"longitude":44.5,"country":"Russia"}],"Guwāhāti":[{"city":"Guwāhāti","latitude":26.16,"longitude":91.77,"country":"India"}],"Yichun":[{"city":"Yichun","latitude":27.8333,"longitude":114.4,"country":"China"},{"city":"Yichun","latitude":47.6999,"longitude":128.9,"country":"China"}],"Yangquan":[{"city":"Yangquan","latitude":37.87,"longitude":113.57,"country":"China"}],"Chandigarh":[{"city":"Chandigarh","latitude":30.72,"longitude":76.78,"country":"India"}],"Gwalior":[{"city":"Gwalior","latitude":26.23,"longitude":78.1801,"country":"India"}],"Hamamatsu":[{"city":"Hamamatsu","latitude":34.7181,"longitude":137.7327,"country":"Japan"}],"Qom":[{"city":"Qom","latitude":34.65,"longitude":50.95,"country":"Iran"}],"Jixi":[{"city":"Jixi","latitude":45.3,"longitude":130.97,"country":"China"}],"Mérida":[{"city":"Mérida","latitude":20.9666,"longitude":-89.6166,"country":"Mexico"},{"city":"Mérida","latitude":8.4,"longitude":-71.13,"country":"Venezuela"},{"city":"Mérida","latitude":38.912,"longitude":-6.338,"country":"Spain"}],"Xin’an":[{"city":"Xin’an","latitude":34.38,"longitude":118.35,"country":"China"}],"Querétaro":[{"city":"Querétaro","latitude":20.63,"longitude":-100.38,"country":"Mexico"}],"Pingxiang":[{"city":"Pingxiang","latitude":27.62,"longitude":113.85,"country":"China"},{"city":"Pingxiang","latitude":22.0974,"longitude":106.7567,"country":"China"}],"João Pessoa":[{"city":"João Pessoa","latitude":-7.1011,"longitude":-34.8761,"country":"Brazil"}],"Klang":[{"city":"Klang","latitude":3.0204,"longitude":101.55,"country":"Malaysia"}],"Jinzhou":[{"city":"Jinzhou","latitude":41.1204,"longitude":121.1,"country":"China"}],"Oklahoma City":[{"city":"Oklahoma City","latitude":35.4676,"longitude":-97.5137,"country":"United States"}],"Salerno":[{"city":"Salerno","latitude":40.6804,"longitude":14.7699,"country":"Italy"}],"Thiruvananthapuram":[{"city":"Thiruvananthapuram","latitude":8.5,"longitude":76.95,"country":"India"}],"Calicut":[{"city":"Calicut","latitude":11.2504,"longitude":75.77,"country":"India"}],"Trichinopoly":[{"city":"Trichinopoly","latitude":10.81,"longitude":78.69,"country":"India"}],"Ogbomoso":[{"city":"Ogbomoso","latitude":8.13,"longitude":4.24,"country":"Nigeria"}],"General Santos":[{"city":"General Santos","latitude":6.1108,"longitude":125.1747,"country":"Philippines"}],"Huế":[{"city":"Huế","latitude":16.47,"longitude":107.58,"country":"Vietnam"}],"Bacolod":[{"city":"Bacolod","latitude":10.6317,"longitude":122.9817,"country":"Philippines"}],"Nantong":[{"city":"Nantong","latitude":32.0304,"longitude":120.825,"country":"China"}],"Foshan":[{"city":"Foshan","latitude":23.0301,"longitude":113.12,"country":"China"}],"Sŏngnam":[{"city":"Sŏngnam","latitude":37.4386,"longitude":127.1378,"country":"Korea, South"}],"Bridgeport":[{"city":"Bridgeport","latitude":41.1918,"longitude":-73.1953,"country":"United States"},{"city":"Bridgeport","latitude":39.3036,"longitude":-80.2477,"country":"United States"},{"city":"Bridgeport","latitude":43.3706,"longitude":-83.8828,"country":"United States"},{"city":"Bridgeport","latitude":33.2099,"longitude":-97.7709,"country":"United States"}],"Nice":[{"city":"Nice","latitude":43.715,"longitude":7.265,"country":"France"}],"Buffalo":[{"city":"Buffalo","latitude":42.9017,"longitude":-78.8487,"country":"United States"},{"city":"Buffalo","latitude":45.1794,"longitude":-93.8644,"country":"United States"}],"Erbil":[{"city":"Erbil","latitude":36.179,"longitude":44.0086,"country":"Iraq"}],"Krasnoyarsk":[{"city":"Krasnoyarsk","latitude":56.014,"longitude":92.866,"country":"Russia"}],"Olinda":[{"city":"Olinda","latitude":-8,"longitude":-34.85,"country":"Brazil"}],"Antwerp":[{"city":"Antwerp","latitude":51.2204,"longitude":4.415,"country":"Belgium"}],"Konya":[{"city":"Konya","latitude":37.875,"longitude":32.475,"country":"Turkey"}],"Bogor":[{"city":"Bogor","latitude":-6.57,"longitude":106.75,"country":"Indonesia"}],"Hartford":[{"city":"Hartford","latitude":41.7661,"longitude":-72.6834,"country":"United States"},{"city":"Hartford","latitude":43.621,"longitude":-96.9424,"country":"United States"},{"city":"Hartford","latitude":43.322,"longitude":-88.3782,"country":"United States"},{"city":"Hartford","latitude":43.6644,"longitude":-72.3866,"country":"United States"}],"Huaibei":[{"city":"Huaibei","latitude":33.9504,"longitude":116.75,"country":"China"}],"Xinyu":[{"city":"Xinyu","latitude":27.8,"longitude":114.93,"country":"China"}],"Teresina":[{"city":"Teresina","latitude":-5.095,"longitude":-42.78,"country":"Brazil"}],"Naha":[{"city":"Naha","latitude":26.2072,"longitude":127.673,"country":"Japan"}],"Goyang":[{"city":"Goyang","latitude":37.6527,"longitude":126.8372,"country":"Korea, South"}],"Nangandao":[{"city":"Nangandao","latitude":35.3204,"longitude":113.87,"country":"China"}],"Yibin":[{"city":"Yibin","latitude":28.77,"longitude":104.57,"country":"China"}],"Aba":[{"city":"Aba","latitude":5.1004,"longitude":7.35,"country":"Nigeria"}],"Maiduguri":[{"city":"Maiduguri","latitude":11.85,"longitude":13.16,"country":"Nigeria"}],"Az Zarqā’":[{"city":"Az Zarqā’","latitude":32.07,"longitude":36.1,"country":"Jordan"}],"Tarsus":[{"city":"Tarsus","latitude":36.9204,"longitude":34.88,"country":"Turkey"}],"Bengbu":[{"city":"Bengbu","latitude":32.95,"longitude":117.33,"country":"China"}],"Mendoza":[{"city":"Mendoza","latitude":-32.8833,"longitude":-68.8166,"country":"Argentina"}],"Hubli":[{"city":"Hubli","latitude":15.36,"longitude":75.125,"country":"India"}],"Concepción":[{"city":"Concepción","latitude":-36.83,"longitude":-73.05,"country":"Chile"},{"city":"Concepción","latitude":-23.4064,"longitude":-57.4344,"country":"Paraguay"}],"Zaria":[{"city":"Zaria","latitude":11.08,"longitude":7.71,"country":"Nigeria"}],"Dengtalu":[{"city":"Dengtalu","latitude":36.08,"longitude":114.35,"country":"China"}],"Cartagena":[{"city":"Cartagena","latitude":10.3997,"longitude":-75.5144,"country":"Colombia"},{"city":"Cartagena","latitude":37.6004,"longitude":-0.98,"country":"Spain"}],"Mysore":[{"city":"Mysore","latitude":12.31,"longitude":76.66,"country":"India"}],"Mexicali":[{"city":"Mexicali","latitude":32.65,"longitude":-115.48,"country":"Mexico"}],"Tongliao":[{"city":"Tongliao","latitude":43.62,"longitude":122.27,"country":"China"}],"Mombasa":[{"city":"Mombasa","latitude":-4.04,"longitude":39.6899,"country":"Kenya"}],"Newcastle upon Tyne":[{"city":"Newcastle upon Tyne","latitude":55.0004,"longitude":-1.6,"country":"United Kingdom"}],"Novo Hamburgo":[{"city":"Novo Hamburgo","latitude":-29.7096,"longitude":-51.14,"country":"Brazil"}],"Callao":[{"city":"Callao","latitude":-12.07,"longitude":-77.135,"country":"Peru"}],"Bilbao":[{"city":"Bilbao","latitude":43.25,"longitude":-2.93,"country":"Spain"}],"Johor Bahru":[{"city":"Johor Bahru","latitude":1.48,"longitude":103.73,"country":"Malaysia"}],"Raipur":[{"city":"Raipur","latitude":21.235,"longitude":81.635,"country":"India"}],"Xiaoxita":[{"city":"Xiaoxita","latitude":30.7,"longitude":111.28,"country":"China"}],"Fort Worth":[{"city":"Fort Worth","latitude":32.7812,"longitude":-97.3472,"country":"United States"}],"Salem":[{"city":"Salem","latitude":11.67,"longitude":78.1801,"country":"India"},{"city":"Salem","latitude":44.9232,"longitude":-123.0245,"country":"United States"},{"city":"Salem","latitude":42.5129,"longitude":-70.902,"country":"United States"},{"city":"Salem","latitude":42.7902,"longitude":-71.2203,"country":"United States"},{"city":"Salem","latitude":37.2864,"longitude":-80.0555,"country":"United States"},{"city":"Salem","latitude":40.9049,"longitude":-80.8491,"country":"United States"},{"city":"Salem","latitude":40.054,"longitude":-111.6721,"country":"United States"},{"city":"Salem","latitude":38.6278,"longitude":-88.9579,"country":"United States"},{"city":"Salem","latitude":38.6048,"longitude":-86.0977,"country":"United States"},{"city":"Salem","latitude":39.5681,"longitude":-75.4724,"country":"United States"}],"Yangjiang":[{"city":"Yangjiang","latitude":21.8504,"longitude":111.97,"country":"China"}],"Marrakech":[{"city":"Marrakech","latitude":31.63,"longitude":-8,"country":"Morocco"}],"Kaifeng Chengguanzhen":[{"city":"Kaifeng Chengguanzhen","latitude":34.85,"longitude":114.35,"country":"China"}],"Dandong":[{"city":"Dandong","latitude":40.1436,"longitude":124.3936,"country":"China"}],"Al Başrah":[{"city":"Al Başrah","latitude":30.5135,"longitude":47.8136,"country":"Iraq"}],"Aguascalientes":[{"city":"Aguascalientes","latitude":21.8795,"longitude":-102.2904,"country":"Mexico"}],"Tucson":[{"city":"Tucson","latitude":32.1545,"longitude":-110.8782,"country":"United States"}],"Okayama":[{"city":"Okayama","latitude":34.672,"longitude":133.9171,"country":"Japan"}],"Bucheon":[{"city":"Bucheon","latitude":37.4989,"longitude":126.7831,"country":"Korea, South"}],"Xuanzhou":[{"city":"Xuanzhou","latitude":30.9525,"longitude":118.7553,"country":"China"}],"Bandar Lampung":[{"city":"Bandar Lampung","latitude":-5.43,"longitude":105.27,"country":"Indonesia"}],"Rizhao":[{"city":"Rizhao","latitude":35.4304,"longitude":119.45,"country":"China"}],"Palermo":[{"city":"Palermo","latitude":38.125,"longitude":13.35,"country":"Italy"},{"city":"Palermo","latitude":39.4313,"longitude":-121.5226,"country":"United States"}],"Caerdydd":[{"city":"Caerdydd","latitude":51.5,"longitude":-3.225,"country":"United Kingdom"}],"Tampico":[{"city":"Tampico","latitude":22.3,"longitude":-97.87,"country":"Mexico"}],"Jiaozuo":[{"city":"Jiaozuo","latitude":35.25,"longitude":113.22,"country":"China"}],"Padang":[{"city":"Padang","latitude":-0.96,"longitude":100.36,"country":"Indonesia"}],"Jalandhar":[{"city":"Jalandhar","latitude":31.3349,"longitude":75.569,"country":"India"}],"Zhenjiang":[{"city":"Zhenjiang","latitude":32.22,"longitude":119.43,"country":"China"}],"Valparaíso":[{"city":"Valparaíso","latitude":-33.0478,"longitude":-71.621,"country":"Chile"},{"city":"Valparaíso","latitude":22.7704,"longitude":-103.57,"country":"Mexico"}],"Pingdingshan":[{"city":"Pingdingshan","latitude":33.7304,"longitude":113.3,"country":"China"}],"Zunyi":[{"city":"Zunyi","latitude":27.7,"longitude":106.92,"country":"China"}],"Anshun":[{"city":"Anshun","latitude":26.2504,"longitude":105.93,"country":"China"}],"Toulouse":[{"city":"Toulouse","latitude":43.62,"longitude":1.4499,"country":"France"}],"El Paso":[{"city":"El Paso","latitude":31.8479,"longitude":-106.4309,"country":"United States"}],"Iguaçu":[{"city":"Iguaçu","latitude":-22.74,"longitude":-43.47,"country":"Brazil"}],"Bhubaneshwar":[{"city":"Bhubaneshwar","latitude":20.2704,"longitude":85.8274,"country":"India"}],"Voronezh":[{"city":"Voronezh","latitude":51.73,"longitude":39.27,"country":"Russia"}],"Saratov":[{"city":"Saratov","latitude":51.58,"longitude":46.03,"country":"Russia"}],"Yuci":[{"city":"Yuci","latitude":37.6804,"longitude":112.73,"country":"China"}],"Yancheng":[{"city":"Yancheng","latitude":33.3856,"longitude":120.1253,"country":"China"}],"Cuernavaca":[{"city":"Cuernavaca","latitude":18.9211,"longitude":-99.24,"country":"Mexico"}],"Linfen":[{"city":"Linfen","latitude":36.0803,"longitude":111.52,"country":"China"}],"Honolulu":[{"city":"Honolulu","latitude":21.3294,"longitude":-157.846,"country":"United States"}],"Warri":[{"city":"Warri","latitude":5.52,"longitude":5.76,"country":"Nigeria"}],"Basel":[{"city":"Basel","latitude":47.5804,"longitude":7.59,"country":"Switzerland"}],"San Miguel de Tucumán":[{"city":"San Miguel de Tucumán","latitude":-26.816,"longitude":-65.2166,"country":"Argentina"}],"Kermānshāh":[{"city":"Kermānshāh","latitude":34.38,"longitude":47.06,"country":"Iran"}],"Thessaloníki":[{"city":"Thessaloníki","latitude":40.6961,"longitude":22.885,"country":"Greece"}],"Omaha":[{"city":"Omaha","latitude":41.2628,"longitude":-96.0498,"country":"United States"}],"Kota":[{"city":"Kota","latitude":25.18,"longitude":75.835,"country":"India"}],"Braga":[{"city":"Braga","latitude":41.555,"longitude":-8.4213,"country":"Portugal"}],"Jhānsi":[{"city":"Jhānsi","latitude":25.453,"longitude":78.5575,"country":"India"}],"Rongjiawan":[{"city":"Rongjiawan","latitude":29.3801,"longitude":113.1,"country":"China"}],"Nottingham":[{"city":"Nottingham","latitude":52.9703,"longitude":-1.17,"country":"United Kingdom"}],"Agadir":[{"city":"Agadir","latitude":30.44,"longitude":-9.62,"country":"Morocco"}],"Butterworth":[{"city":"Butterworth","latitude":5.4171,"longitude":100.4,"country":"Malaysia"}],"Bareilly":[{"city":"Bareilly","latitude":28.3454,"longitude":79.42,"country":"India"}],"Jos":[{"city":"Jos","latitude":9.93,"longitude":8.89,"country":"Nigeria"}],"Xingyi":[{"city":"Xingyi","latitude":25.0904,"longitude":104.89,"country":"China"}],"Cebu City":[{"city":"Cebu City","latitude":10.32,"longitude":123.9001,"country":"Philippines"}],"Arequipa":[{"city":"Arequipa","latitude":-16.42,"longitude":-71.53,"country":"Peru"}],"Liverpool":[{"city":"Liverpool","latitude":53.416,"longitude":-2.918,"country":"United Kingdom"},{"city":"Liverpool","latitude":44.04,"longitude":-64.72,"country":"Canada"}],"Wuhu":[{"city":"Wuhu","latitude":31.3504,"longitude":118.37,"country":"China"}],"Langfang":[{"city":"Langfang","latitude":39.5204,"longitude":116.68,"country":"China"}],"Rājshāhi":[{"city":"Rājshāhi","latitude":24.375,"longitude":88.605,"country":"Bangladesh"}],"Zhaotong":[{"city":"Zhaotong","latitude":27.3204,"longitude":103.72,"country":"China"}],"Culiacán":[{"city":"Culiacán","latitude":24.83,"longitude":-107.38,"country":"Mexico"}],"Lingyuan":[{"city":"Lingyuan","latitude":41.24,"longitude":119.4011,"country":"China"}],"Cuiabá":[{"city":"Cuiabá","latitude":-15.5696,"longitude":-56.085,"country":"Brazil"}],"Quy Nhơn":[{"city":"Quy Nhơn","latitude":13.78,"longitude":109.18,"country":"Vietnam"}],"Malang":[{"city":"Malang","latitude":-7.98,"longitude":112.61,"country":"Indonesia"}],"Alīgarh":[{"city":"Alīgarh","latitude":27.8922,"longitude":78.0618,"country":"India"}],"L’viv":[{"city":"L’viv","latitude":49.835,"longitude":24.03,"country":"Ukraine"}],"Bordeaux":[{"city":"Bordeaux","latitude":44.85,"longitude":-0.595,"country":"France"}],"McAllen":[{"city":"McAllen","latitude":26.2273,"longitude":-98.2471,"country":"United States"}],"Baojishi":[{"city":"Baojishi","latitude":34.38,"longitude":107.15,"country":"China"}],"Pekanbaru":[{"city":"Pekanbaru","latitude":0.565,"longitude":101.425,"country":"Indonesia"}],"Oran":[{"city":"Oran","latitude":35.71,"longitude":-0.62,"country":"Algeria"}],"Yingkou":[{"city":"Yingkou","latitude":40.6703,"longitude":122.28,"country":"China"}],"Bhiwandi":[{"city":"Bhiwandi","latitude":19.35,"longitude":73.13,"country":"India"}],"Liaoyang":[{"city":"Liaoyang","latitude":41.28,"longitude":123.18,"country":"China"}],"Chihuahua":[{"city":"Chihuahua","latitude":28.645,"longitude":-106.085,"country":"Mexico"}],"Jammu":[{"city":"Jammu","latitude":32.7118,"longitude":74.8467,"country":"India"}],"Melaka":[{"city":"Melaka","latitude":2.2064,"longitude":102.2465,"country":"Malaysia"}],"Zaporizhzhya":[{"city":"Zaporizhzhya","latitude":47.8573,"longitude":35.1768,"country":"Ukraine"}],"Morādābād":[{"city":"Morādābād","latitude":28.8418,"longitude":78.7568,"country":"India"}],"Antalya":[{"city":"Antalya","latitude":36.89,"longitude":30.7,"country":"Turkey"}],"Al Ḩudaydah":[{"city":"Al Ḩudaydah","latitude":14.7979,"longitude":42.953,"country":"Yemen"}],"Campo Grande":[{"city":"Campo Grande","latitude":-20.45,"longitude":-54.6166,"country":"Brazil"}],"Shaoxing":[{"city":"Shaoxing","latitude":30.0004,"longitude":120.57,"country":"China"}],"Mangalore":[{"city":"Mangalore","latitude":12.9,"longitude":74.85,"country":"India"}],"Wuppertal":[{"city":"Wuppertal","latitude":51.25,"longitude":7.17,"country":"Germany"}],"Cheongju":[{"city":"Cheongju","latitude":36.6439,"longitude":127.5012,"country":"Korea, South"}],"Zamboanga City":[{"city":"Zamboanga City","latitude":6.92,"longitude":122.08,"country":"Philippines"}],"Hamhŭng":[{"city":"Hamhŭng","latitude":39.9101,"longitude":127.5454,"country":"Korea, North"}],"Fuyang":[{"city":"Fuyang","latitude":30.0533,"longitude":119.9519,"country":"China"},{"city":"Fuyang","latitude":32.9004,"longitude":115.82,"country":"China"}],"Ilorin":[{"city":"Ilorin","latitude":8.49,"longitude":4.55,"country":"Nigeria"}],"Saarbrücken":[{"city":"Saarbrücken","latitude":49.2504,"longitude":6.97,"country":"Germany"}],"Fuxin":[{"city":"Fuxin","latitude":42.0105,"longitude":121.66,"country":"China"}],"Shiyan":[{"city":"Shiyan","latitude":32.57,"longitude":110.78,"country":"China"}],"Quetta":[{"city":"Quetta","latitude":30.22,"longitude":67.025,"country":"Pakistan"}],"Trujillo":[{"city":"Trujillo","latitude":-8.12,"longitude":-79.02,"country":"Peru"},{"city":"Trujillo","latitude":9.3804,"longitude":-70.44,"country":"Venezuela"},{"city":"Trujillo","latitude":15.9104,"longitude":-85.96,"country":"Honduras"}],"Kananga":[{"city":"Kananga","latitude":-5.89,"longitude":22.4,"country":"Congo (Kinshasa)"}],"Trabzon":[{"city":"Trabzon","latitude":40.98,"longitude":39.72,"country":"Turkey"}],"Jincheng":[{"city":"Jincheng","latitude":35.5004,"longitude":112.83,"country":"China"},{"city":"Jincheng","latitude":24.4341,"longitude":118.3171,"country":"Taiwan"}],"Albuquerque":[{"city":"Albuquerque","latitude":35.1053,"longitude":-106.6464,"country":"United States"}],"Łódź":[{"city":"Łódź","latitude":51.775,"longitude":19.4514,"country":"Poland"}],"Kraków":[{"city":"Kraków","latitude":50.06,"longitude":19.96,"country":"Poland"}],"Saltillo":[{"city":"Saltillo","latitude":25.42,"longitude":-101.005,"country":"Mexico"}],"São José dos Campos":[{"city":"São José dos Campos","latitude":-23.2,"longitude":-45.8799,"country":"Brazil"}],"Hŭngnam":[{"city":"Hŭngnam","latitude":39.8231,"longitude":127.6232,"country":"Korea, North"}],"Ta‘izz":[{"city":"Ta‘izz","latitude":13.6045,"longitude":44.0394,"country":"Yemen"}],"Pietermaritzburg":[{"city":"Pietermaritzburg","latitude":-29.61,"longitude":30.39,"country":"South Africa"}],"Tangier":[{"city":"Tangier","latitude":35.7473,"longitude":-5.8327,"country":"Morocco"}],"Hsinchu":[{"city":"Hsinchu","latitude":24.8168,"longitude":120.9767,"country":"Taiwan"}],"Changhua":[{"city":"Changhua","latitude":24.0734,"longitude":120.5134,"country":"Taiwan"}],"Kolhāpur":[{"city":"Kolhāpur","latitude":16.7,"longitude":74.22,"country":"India"}],"Farg‘ona":[{"city":"Farg‘ona","latitude":40.39,"longitude":71.78,"country":"Uzbekistan"}],"Namangan":[{"city":"Namangan","latitude":41,"longitude":71.67,"country":"Uzbekistan"}],"Liège":[{"city":"Liège","latitude":50.63,"longitude":5.58,"country":"Belgium"}],"Ciudad Guayana":[{"city":"Ciudad Guayana","latitude":8.37,"longitude":-62.62,"country":"Venezuela"}],"Hegang":[{"city":"Hegang","latitude":47.4,"longitude":130.37,"country":"China"}],"Naga City":[{"city":"Naga City","latitude":13.6192,"longitude":123.1814,"country":"Philippines"}],"Gdańsk":[{"city":"Gdańsk","latitude":54.36,"longitude":18.64,"country":"Poland"}],"Ansan":[{"city":"Ansan","latitude":37.3481,"longitude":126.8595,"country":"Korea, South"}],"Nuremberg":[{"city":"Nuremberg","latitude":49.45,"longitude":11.08,"country":"Germany"}],"Oyo":[{"city":"Oyo","latitude":7.8504,"longitude":3.93,"country":"Nigeria"}],"Amrāvati":[{"city":"Amrāvati","latitude":20.95,"longitude":77.77,"country":"India"}],"Denpasar":[{"city":"Denpasar","latitude":-8.65,"longitude":115.22,"country":"Indonesia"}],"Sokoto":[{"city":"Sokoto","latitude":13.06,"longitude":5.24,"country":"Nigeria"}],"Beihai":[{"city":"Beihai","latitude":21.4804,"longitude":109.1,"country":"China"}],"Bremen":[{"city":"Bremen","latitude":53.08,"longitude":8.8,"country":"Germany"},{"city":"Bremen","latitude":33.7086,"longitude":-85.1498,"country":"United States"}],"As Sulaymānīyah":[{"city":"As Sulaymānīyah","latitude":35.5613,"longitude":45.4309,"country":"Iraq"}],"Hannover":[{"city":"Hannover","latitude":52.367,"longitude":9.7167,"country":"Germany"}],"Cúcuta":[{"city":"Cúcuta","latitude":7.92,"longitude":-72.52,"country":"Colombia"}],"Hamilton":[{"city":"Hamilton","latitude":43.25,"longitude":-79.83,"country":"Canada"},{"city":"Hamilton","latitude":-37.7783,"longitude":175.2896,"country":"New Zealand"},{"city":"Hamilton","latitude":55.7667,"longitude":-4.0333,"country":"United Kingdom"},{"city":"Hamilton","latitude":40.2046,"longitude":-74.6765,"country":"United States"},{"city":"Hamilton","latitude":39.3938,"longitude":-84.5652,"country":"United States"},{"city":"Hamilton","latitude":32.2942,"longitude":-64.7839,"country":"Bermuda"},{"city":"Hamilton","latitude":-37.7312,"longitude":142.0234,"country":"Australia"},{"city":"Hamilton","latitude":42.6267,"longitude":-70.858,"country":"United States"},{"city":"Hamilton","latitude":46.2527,"longitude":-114.1598,"country":"United States"},{"city":"Hamilton","latitude":34.1346,"longitude":-87.9755,"country":"United States"}],"Moshi":[{"city":"Moshi","latitude":-3.3396,"longitude":37.34,"country":"Tanzania"}],"Shaoguan":[{"city":"Shaoguan","latitude":24.8,"longitude":113.58,"country":"China"}],"Kumamoto":[{"city":"Kumamoto","latitude":32.8009,"longitude":130.7006,"country":"Japan"}],"Dayton":[{"city":"Dayton","latitude":39.7797,"longitude":-84.1998,"country":"United States"},{"city":"Dayton","latitude":30.0293,"longitude":-94.9039,"country":"United States"},{"city":"Dayton","latitude":35.4912,"longitude":-85.012,"country":"United States"},{"city":"Dayton","latitude":40.3815,"longitude":-74.5137,"country":"United States"},{"city":"Dayton","latitude":39.1128,"longitude":-84.464,"country":"United States"},{"city":"Dayton","latitude":39.258,"longitude":-119.5677,"country":"United States"},{"city":"Dayton","latitude":45.1906,"longitude":-93.4758,"country":"United States"}],"Xinpu":[{"city":"Xinpu","latitude":34.6004,"longitude":119.17,"country":"China"}],"Acapulco de Juárez":[{"city":"Acapulco de Juárez","latitude":16.85,"longitude":-99.916,"country":"Mexico"}],"Kandahār":[{"city":"Kandahār","latitude":31.61,"longitude":65.6949,"country":"Afghanistan"}],"Dehra Dūn":[{"city":"Dehra Dūn","latitude":30.3204,"longitude":78.05,"country":"India"}],"Rochester":[{"city":"Rochester","latitude":43.168,"longitude":-77.6162,"country":"United States"},{"city":"Rochester","latitude":44.0151,"longitude":-92.4778,"country":"United States"},{"city":"Rochester","latitude":51.3833,"longitude":0.5167,"country":"United Kingdom"},{"city":"Rochester","latitude":43.299,"longitude":-70.9787,"country":"United States"},{"city":"Rochester","latitude":42.6866,"longitude":-83.1197,"country":"United States"},{"city":"Rochester","latitude":41.059,"longitude":-86.196,"country":"United States"},{"city":"Rochester","latitude":41.76,"longitude":-70.8385,"country":"United States"}],"Jeonju":[{"city":"Jeonju","latitude":35.8314,"longitude":127.1404,"country":"Korea, South"}],"Samarkand":[{"city":"Samarkand","latitude":39.67,"longitude":66.945,"country":"Uzbekistan"}],"Qingyuan":[{"city":"Qingyuan","latitude":23.7004,"longitude":113.0301,"country":"China"},{"city":"Qingyuan","latitude":24.5004,"longitude":108.6667,"country":"China"}],"Sarasota":[{"city":"Sarasota","latitude":27.3386,"longitude":-82.543,"country":"United States"}],"Changzhi":[{"city":"Changzhi","latitude":36.1839,"longitude":113.1053,"country":"China"}],"Tol’yatti":[{"city":"Tol’yatti","latitude":53.4804,"longitude":49.53,"country":"Russia"}],"Jaboatão":[{"city":"Jaboatão","latitude":-8.11,"longitude":-35.02,"country":"Brazil"}],"Shizuoka":[{"city":"Shizuoka","latitude":34.9858,"longitude":138.3854,"country":"Japan"}],"Bulawayo":[{"city":"Bulawayo","latitude":-20.17,"longitude":28.58,"country":"Zimbabwe"}],"Soledad":[{"city":"Soledad","latitude":10.92,"longitude":-74.77,"country":"Colombia"},{"city":"Soledad","latitude":36.4434,"longitude":-121.3431,"country":"United States"}],"Fresno":[{"city":"Fresno","latitude":36.7831,"longitude":-119.7941,"country":"United States"},{"city":"Fresno","latitude":29.5357,"longitude":-95.4693,"country":"United States"}],"Meknès":[{"city":"Meknès","latitude":33.9004,"longitude":-5.56,"country":"Morocco"}],"La Plata":[{"city":"La Plata","latitude":-34.9096,"longitude":-57.96,"country":"Argentina"},